stop_lat,wheelchair_boarding,stop_code,stop_lon,stop_timezone,stop_url,parent_station,stop_desc,stop_name,location_type,stop_id,zone_id
42.74828,0,1867,-84.57249,,,,W WILLOW ST & N JENISON AVE,EBD Willow past Jenison Ave,0,1867,
42.744406,0,3924,-84.462179,,,,N HAGADORN RD & WOODSIDE DR,NBD Hagadorn before Ridgewood Dr,0,3924,
42.683992,0,4458,-84.547894,,,,S CEDAR ST & W JOLLY RD,NBD Cedar past Jolly Rd,0,4458,
42.687235,0,4418,-84.594968,,,,ATLANTA PL & REO RD,NBD Atlanta before Ronald St,0,4418,
42.741056,0,1855,-84.608653,,,,E SAGINAW HWY & CLARK RD,EBD Saginaw past Renker Rd,0,1855,
42.69773,0,4373,-84.53816,,,,S PENNSYLVANIA AVE & S DEXTER DR,SBD Pennsylvania past Dexter D,0,4373,
42.706592,0,1806,-84.556889,,,,S WASHINGTON AVE & KENSINGTON RD,NBD Washington past Kensington R,0,1806,
42.762415,0,4784,-84.542725,,,,N EAST ST & BATES ST,NBD N East past Bates,0,4784,
42.757761,0,3726,-84.523153,,,,WOOD ST & PEPPERTREE LN,SBD Wood past Barritt St,0,3726,
42.74825,0,1868,-84.5681,,,,W WILLOW ST & N MARTIN LUTHER KING JR BLVD,EBD Willow past Linwood St,0,1868,
42.767178,0,4780,-84.592398,,,,N GRAND RIVER AVE & ANDREA DR,EBD Grand River at Andrea,0,4780,
42.71615,0,3258,-84.54649,,,,S CEDAR ST & BAKER ST,SBD Cedar past Baker St,0,3258,
42.773156,0,5988,-84.499968,,,,COLEMAN RD & HAMLET RD,EBD Coleman past Hamlet,0,5988,
42.690044,0,5989,-84.498807,,,,COLLINS RD & DUNKEL,SBD Collins before Dunkel,0,5989,
42.75008,0,3553,-84.534527,,,,VERMONT AVE & E GRAND RIVER AVE,NBD Vermont before Oak St,0,3553,
42.74761,0,3552,-84.534517,,,,VERMONT AVE & E GRAND RIVER AVE,NBD Vermont past Grand River Av,0,3552,
42.747147,0,3551,-84.537687,,,,,EBD Pennsylvania before Grand River,0,3551,
42.745778,0,3550,-84.537713,,,,N PENNSYLVANIA AVE & PERSONS CT,NBD Pennsylvania past Porter St,0,3550,
42.77306,0,5982,-84.491269,,,,COLEMAN RD,EBD Coleman at Block 36,0,5982,
42.68989,0,4376,-84.53817,,,,S PENNSYLVANIA AVE & SAMANTHA ST,SBD Pennsylvania past Cavanaugh,0,4376,
42.62794,0,1940,-84.5429,,,,N EIFERT RD & WINDMILL BLVD,NBD Eifert at Valley Brook Rd,0,1940,
42.62919,0,1946,-84.52227,,,,DONCASTER AVE & AURELIUS RD,EBD Doncaster past Aurelius Rd,0,1946,
42.758861,0,5987,-84.483693,,,,ABBOT RD & LAKE LANSING RD,NBD Abbot before Lake Lansing Rd,0,5987,
42.726685,0,5984,-84.612901,,,,E ST JOE HWY & CHESLEY ST,WBD St Joseph before Chesley,0,5984,
42.681346,0,161,-84.545672,,,,UNNAMED ST & S CEDAR ST,Family Ind. Agency,0,161,
42.758352,0,3857,-84.463799,,,,BIRCH ROW DR & COACH HOUSE ST,WBD Birch Row past Hagadorn Rd,0,3857,
42.725175,0,2918,-84.479498,,,,S SHAW LN & FARM LN,EBD S Shaw before Farm,0,2918,
42.683821,0,3993,-84.432356,,,,3520 OKEMOS RD & JOLLY RD,NBD Okemos past W Jolly Rd,0,3993,
42.709161,0,2859,-84.493806,,,,S HARRISON RD & TECHNOLOGY BLVD,NBD Harrison Rd at Forest Acres,0,2859,
42.755405,0,3787,-84.55927,,,,N GRAND RIVER AVE & SADIE CT,EBD Grand River past Sadie Ct,0,3787,
42.746916,0,2912,-84.434431,,,,2319 HASLETT RD & past Westminster,EBD Haslett past Westminster Way,0,2912,
42.697514,0,1798,-84.578319,,,,W HOLMES RD & EXPRESS CT,EBD Holmes past Simkin,0,1798,
42.714213,0,4750,-84.500885,,,,MIDDLEVALE RD & S HARRISON RD,Middlevale past Elem School,0,4750,
42.729782,0,2915,-84.487708,,,,CHESTNUT RD & ELM ST,NBD Chestnut past Dem Hall Dr.,0,2915,
42.730209,0,2916,-84.485471,,,,RED CEDAR RD & FARM LN,EBD Red Cedar past Chestnut,0,2916,
42.728623,0,2917,-84.482919,,,,RED CEDAR RD & ELM ST,SBD Red Cedar at Wells Hall,0,2917,
42.689489,0,1793,-84.582262,,,,PLEASANT GROVE RD & RISDALE AVE,NBD Pleasant Grove at Risdale St,0,1793,
42.686992,0,1792,-84.582287,,,,PLEASANT GROVE RD & REO RD,NBD Pleasant Grove past Reo Rd,0,1792,
42.764484,0,3767,-84.602697,,,,N WAVERLY RD & STANDARD DR,NBD Waverly past Delta River Dr,0,3767,
42.686671,0,1790,-84.588351,,,,REO RD & INGHAM ST,EBD Reo past Ingham St,0,1790,
42.697524,0,1797,-84.580652,,,,W HOLMES RD & PLEASANT GROVE RD,EBD Holmes past Pleasant Grove,0,1797,
42.696835,0,1796,-84.582162,,,,PLEASANT GROVE RD & W HOLMES RD,NBD Pleasant Grove before Holmes,0,1796,
42.693265,0,1795,-84.582225,,,,PLEASANT GROVE RD & HILLCREST ST,NBD Pleasant Grove past Hillcrest S,0,1795,
42.691019,0,1794,-84.582237,,,,PLEASANT GROVE RD & MARY AVE,NBD Pleasant Grove before Mary Ave,0,1794,
42.65976,0,3333,-84.53735,,,,S CEDAR ST & E I 96,NBD Cedar past Roth Dr,0,3333,
42.65534,0,3331,-84.53311,,,,S CEDAR ST & BENTON ST,NBD Cedar past Willoughby Rd,0,3331,
42.65028,0,3330,-84.52762,,,,CEDAR ST & FAY ST,NBD Cedar St at Fay Ave,0,3330,
42.67691,0,3337,-84.54767,,,,S CEDAR ST & E NORTHRUP ST,NBD Cedar past Northrup St,0,3337,
42.67352,0,3336,-84.54619,,,,S CEDAR ST & CURRY LN,NBD Cedar past Kaynorth Rd,0,3336,
42.67015,0,3335,-84.54441,,,,S CEDAR ST & CURRY LN,NBD Cedar past Miller Rd,0,3335,
42.580542,0,5466,-84.443203,,,,S JEFFERSON ST & E MAPLE ST,SBD Jefferson before Maple,0,5466,
42.582162,0,5469,-84.45211,,,,W COLUMBIA ST & MECHANIC ST,EBD Columbia past Cedar,0,5469,
42.737373,0,1627,-84.557326,,,,W SHIAWASSEE ST & N WALNUT ST,WBD Shiawassee past Walnut,0,1627,
42.733699,0,1738,-84.522724,,,,E MICHIGAN AVE & CLEMENS STREET,WBD Michigan past Clemens Ave,0,1738,
42.729979,0,2898,-84.487707,,,,CHESTNUT RD & SCIENCE RD,SBD Chestnut Rd before Dem. Hall,0,2898,
42.726445,0,1700,-84.451835,,,,E GRAND RIVER AVE & DAWN AVE,EBD Gr. River before Dawn,0,1700,
42.725493,0,1701,-84.448483,,,,E GRAND RIVER AVE,EBD Gr. River Ave before Park Lake,0,1701,
42.72431,0,1702,-84.44096,,,,W GRAND RIVER AVE & CANADIAN NATIONAL RAILWAY,EBD Gr. River Ave before Small Acre,0,1702,
42.72337,0,1703,-84.43544,,,,W GRAND RIVER AVE & MONTROSE AVE,EBD Gr. River Ave past Nakoma Dr,0,1703,
42.72272,0,1704,-84.43155,,,,W GRAND RIVER AVE & GRANDVIEW AVE,EBD Gr. River Ave after Grand View,0,1704,
42.72196,0,1705,-84.42705,,,,W GRAND RIVER AVE & OKEMOS MEIJER LOT,EBD Gr. River Ave past Okemos Rd,0,1705,
42.71995,0,1706,-84.42464,,,,OKEMOS MEIJER LOT & OKEMOS MEIJER LOT,Okemos Meijer,0,1706,
42.664721,0,4738,-84.576033,,,,GEORGETOWN BLVD & YUNKER ST,WBD Georgetown past Haag,0,4738,
42.69975,0,3417,-84.53817,,,,S PENNSYLVANIA AVE & ALDEN DR,SBD Pennsylvania past Alden Dr,0,3417,
42.69671,0,4390,-84.53797,,,,S PENNSYLVANIA AVE & VERNON AVE,NBD Pennsylvania at Vernon Ave,0,4390,
42.712037,0,5919,-84.583719,,,,W MOUNT HOPE AVE & PLEASANT GROVE RD,EBD Mt Hope before Pleasant Grove,0,5919,
42.775926,0,5918,-84.484231,,,,HUNSAKER ST,WBD Hunsaker past Chandler,0,5918,
42.762043,0,1669,-84.502023,,,,,Meijer Lake Lansing Boarding Center (East Side),0,1669,
42.730539,0,4526,-84.474244,,,,PHYSICS RD,NBD Physics before Dormitory Rd,0,4526,
42.71997,0,5917,-84.424644,,,,OKEMOS MEIJER LOT,Rt 22 WBD at Meijer,0,5917,
42.719754,0,5911,-84.46203,,,,S HAGADORN RD & CANADIAN NATIONAL RAILWAY,NBD Hagadorn past Hannah Blvd,0,5911,
42.762043,0,5910,-84.501999,,,,MEIJER LAKE LANSING LOT,Meijer Lake Lansing Boarding center (west side),0,5910,
42.730086,0,1661,-84.47788,,,,FARM LN & E CIRCLE DR,SBD Farm Ln before Auditorium Rd,0,1661,
42.730821,0,1660,-84.476642,,,,E CIRCLE DR & AUDITORIUM RD,SBD Farm past E Circle Dr,0,1660,
42.767553,0,3772,-84.593738,,,,N GRAND RIVER AVE & YOUNG AVE,EBD Grand River past Young Ave,0,3772,
42.768305,0,3771,-84.596442,,,,N GRAND RIVER AVE & SHEFFER AVE,EBD Grand River before Sheffer Av,0,3771,
42.769164,0,3770,-84.599539,,,,N GRAND RIVER AVE & N WAVERLY RD,EBD Grand River past Waverly,0,3770,
42.765495,0,3777,-84.586302,,,,N GRAND RIVER AVE & BENTON BLVD,EBD Grand River past Grandell Av,0,3777,
42.751002,0,4841,-84.462461,,,,N HAGADORN RD & FORTUNE DR,SBD Hagadorn past Crestwood,0,4841,
42.711742,0,195,-84.458975,,,,E MOUNT HOPE RD & JANICE LEE DR,EBD Mt Hope past Hagadorn,0,195,
42.722033,0,4079,-84.488616,,,,WILSON RD & WILSON RD,WBD Wilson past Chestnut Rd,0,4079,
42.763364,0,3779,-84.578892,,,,N GRAND RIVER AVE & DELTA ST,EBD Grand River past Delta River,0,3779,
42.764725,0,3778,-84.583611,,,,N GRAND RIVER AVE & BENTON BLVD,EBD Grand River past Benton Blvd,0,3778,
42.727464,0,191,-84.498459,,,,UNIVERSITY VLG & UNIVERSITY VILLAGE ENTRANCE,University Village,0,191,
42.722561,0,2890,-84.478053,,,,FARM LN,SBD Farm past Wilson,0,2890,
42.68443,0,4471,-84.506548,,,,BEAU JARDIN DR & TRAPPERS COVE TRL,EBD Beau Jardin past Belle Chase,0,4471,
42.740384,0,3679,-84.577055,,,,N VERLINDEN AVE & N GENESEE ST,NBD Verlinden past Genesee Dr,0,3679,
42.747881,0,1144,-84.483637,,,,1400 ABBOT RD & E SAGINAW ST,NBD Abbot past Saginaw,0,1144,
42.730021,0,4650,-84.508737,,,,E KALAMAZOO ST & S HOMER ST,WBD Kalamazoo past Clippert,0,4650,
42.669369,0,4558,-84.556248,,,,W MILLER RD & ELLENDALE DR,WBD Miller past Ellendale Dr,0,4558,
42.669352,0,4559,-84.558776,,,,W MILLER RD & HILLIARD RD,WBD Miller past Hilliard Rd,0,4559,
42.733782,0,3672,-84.591159,,,,W MICHIGAN AVE & N DEERFIELD AVE,EBD Michigan at Brynford Ave,0,3672,
42.733791,0,3673,-84.587105,,,,W MICHIGAN AVE & ALGER ST,EBD Michigan past Rosemary Ave,0,3673,
42.733791,0,3670,-84.597621,,,,W MICHIGAN AVE & STONER RD,EBD Michigan past Stoner Rd,0,3670,
42.733764,0,3671,-84.593972,,,,W MICHIGAN AVE & BON AIR RD,EBD Michigan past Bon Air Rd,0,3671,
42.735024,0,3676,-84.577032,,,,N VERLINDEN AVE & FORBES ST,NBD Verlinden past Inverness Av,0,3676,
42.737344,0,3677,-84.577014,,,,N VERLINDEN AVE & S GENESEE DR,NBD Verlinden past Shiawassee St,0,3677,
42.733781,0,3674,-84.584833,,,,W MICHIGAN AVE & HATHAWAY ST,EBD Michigan past Hathaway St,0,3674,
42.733781,0,3675,-84.581332,,,,W MICHIGAN AVE & N VERLINDEN AVE,EBD Michigan past Clare St,0,3675,
42.743119,0,2543,-84.493572,,,,940 N HARRISON RD & NORTHLAWN ST,NBD Harrison past Northlawn St,0,2543,
42.740596,0,2542,-84.493539,,,,720 N HARRISON RD & SOUTHLAWN AVE,NBD Harrison past Wildwood Dr,0,2542,
42.682977,0,3384,-84.514602,,,,E JOLLY RD & DUNCKEL RD,WBD Jolly past Dunckel Rd,0,3384,
42.686892,0,3385,-84.523351,,,,AURELIUS RD & IRENE ST,NBD Aurelius past Irene St,0,3385,
42.753491,0,2547,-84.493458,,,,1800 N HARRISON RD & BLANCHETTE DR,NBD Harrison past Blanchette Dr,0,2547,
42.751468,0,2546,-84.493498,,,,1620 N HARRISON RD & DARLINGTON AVE,NBD Harrison past Gainsborough Dr,0,2546,
42.684441,0,3380,-84.509408,,,,3029 BEAU JARDIN DR & FIVE OAKS DR,EBD Beau Jardin before Belle Chase,0,3380,
42.68493,0,3381,-84.504731,,,,TRAPPERS COVE TRL & BEAU JARDIN DR,NBD Trappers Cove past Beau Jardin,0,3381,
42.75843,0,2549,-84.493475,,,,2210 N HARRISON RD & TARLETON AVE,NBD Harrison past Tarleton Ave,0,2549,
42.755343,0,2548,-84.493505,,,,1900 N HARRISON RD & CROWN BLVD,NBD Harrison Rd at Crown Blvd,0,2548,
42.673038,0,5795,-84.504354,,,,ENGLISH OAK DR & PINE TREE RD,WBD English Oak past Pinetree,0,5795,
42.695062,0,3388,-84.523317,,,,AURELIUS RD & GREENWICH CT,NBD Aurelius past Irvington Ave,0,3388,
42.696703,0,3389,-84.515544,,,,STONELEIGH DR & CALLIHAN CT,EBD Stoneleigh past Prov. House,0,3389,
42.743283,0,2385,-84.524004,,,,E GRAND RIVER AVE & WOOD ST,WBD Grand River past Wood St,0,2385,
42.743317,0,2384,-84.521596,,,,E GRAND RIVER AVE & N FOSTER AVE,WBD Grand River past Fairview,0,2384,
42.725455,0,2442,-84.536452,,,,PENNSYLVANIA/MAIN CONNECTOR & E JOLLY RD,EBD Malcolm X past S Pennsylvania Ave,0,2442,
42.75962,0,2525,-84.48362,,,,Abbot Rd & E Lake Lansing Rd,NBD Abbot past W Lake Lansing Rd,0,2525,
42.74372,0,3583,-84.540098,,,,E OAKLAND AVE & PRUDDEN ST,WBD Oakland past Ballard St,0,3583,
42.745712,0,2446,-84.553808,,,,N CAPITOL AVE & W MAPLE ST,SBD Capitol before Kilborn St,0,2446,
42.74179,0,3585,-84.546574,,,,N CEDAR ST & MONROE ST,SBD Cedar before E Saginaw St,0,3585,
42.73743,0,3586,-84.567547,,,,W SHIAWASSEE ST & N MARTIN LUTHER KING JR BLVD,WBD Shiawassee past MLK Blvd,0,3586,
42.737439,0,3587,-84.570238,,,,W SHIAWASSEE ST & HOWE ST,WBD Shiawassee past Carey St,0,3587,
42.737422,0,3588,-84.571884,,,,W SHIAWASSEE ST & WESTMORELAND AVE,WBD Shiawassee past Westmoreland,0,3588,
42.733827,0,3669,-84.60219,,,,W MICHIGAN AVE & CLEMENT RD,EBD Michigan past Waverly Rd,0,3669,
42.723127,0,4219,-84.470805,,,,WILSON RD & FARM LN,EBD Wilson past Bogue,0,4219,
42.735972,0,5823,-84.509233,,,,VINE ST & N HOMER ST,EBD Vine past Homer,0,5823,
42.740876,0,3690,-84.52365,,,,E SAGINAW ST & N CLEMENS AVE,EBD Saginaw before Clemens Ave,0,3690,
42.718215,0,5670,-84.411139,,,,1729 W GRAND RIVER AVE & COUNTRY WAY DR E,WBD Grand River past Dobie,0,5670,
42.7158,0,5672,-84.399552,,,,W GRAND RIVER AVE & PADDOCK DR,EBD Gr River past Paddock Farms,0,5672,
42.684992,0,5673,-84.534536,,,,TRANTER ST & CATA HEADQUARTERS,NBD Tranter past Rensen,0,5673,
42.731985,0,5674,-84.552183,,,,S WASHINGTON SQ & W ALLEGAN ST,NBD Washington past Washtenaw,0,5674,
42.73721,0,4359,-84.53977,,,,E SHIAWASSEE ST & HAAG CT,WBD Shiawassee at Haag Ct,0,4359,
42.733005,0,5676,-84.552194,,,,S WASHINGTON SQ & E ALLEGAN ST,NBD Washington past Allegan,0,5676,
42.665669,0,5678,-84.542444,,,,EDGEWOOD BLVD & CEDAR CONN/CEDAR RAMP,WBD Edgewood past Cedar,0,5678,
42.665008,0,5679,-84.544138,,,,EDGEWOOD BLVD & PARIS AVE,WBD Edgewood past Amwood,0,5679,
42.732021,0,5773,-84.55233,,,,S WASHINGTON SQ & W ALLEGAN ST,SBD Washington past Allegan,0,5773,
42.733354,0,5772,-84.552329,,,,S WASHINGTON SQ & E ALLEGAN ST,SBD Washington past Michigan,0,5772,
42.711746,0,5824,-84.453732,,,,E MOUNT HOPE RD & HAWTHORNE LN,EBD Mt Hope before Fairlane,0,5824,
42.730068,0,2046,-84.527641,,,,E KALAMAZOO ST & LATHROP ST,WBD Kalamazoo past Allen St,0,2046,
42.712971,0,4812,-84.480464,,,,COMMUTER LOT 89,Commuter Lot 89-3,0,4812,
42.688371,0,4428,-84.607735,,,,SEAWAY DR & GLENBURNE BLVD,SBD Seaway before Burneway Dr,0,4428,
42.68659,0,4429,-84.60566,,,,BURNEWAY DR & GLENBURNE BLVD,EBD Burneway past Seaway Dr,0,4429,
42.758457,0,2523,-84.475935,,,,E LAKE LANSING RD & BIRCH ROW DR,WBD Lake Lansing past Towar Ave,0,2523,
42.729081,0,5579,-84.549167,,,,CHERRY ST & E LENAWEE ST,SBD Cherry past Kalamazoo,0,5579,
42.729982,0,5578,-84.521717,,,,E KALAMAZOO ST & S MAGNOLIA AVE,WBD Kalamazoo past Magnolia,0,5578,
42.627017,0,33,-84.522224,,,,DAVLIND DR & AURELIUS RD,WBD Davlind before Aurelius,0,33,
42.741136,0,1842,-84.61713,,,,E SAGINAW HWY & THEO AVE,WBD Saginaw past Maycroft Rd,0,1842,
42.735887,0,4819,-84.480647,,,,MAC AVE & MARIOTT SERVICE DRIVE,NBD MAC past Albert,0,4819,
42.741173,0,1840,-84.609636,,,,E SAGINAW HWY & CLARK RD,WBD Saginaw past Clark Rd,0,1840,
42.74094,0,1847,-84.630626,,,,S SERVICE DR & K MART LOT,EBD Saginaw past Mall Dr,0,1847,
42.681355,0,36,-84.547934,,,,S CEDAR ST,NBD Cedar before Jolly,0,36,
42.745439,0,1845,-84.623004,,,,W MALL DR & E MALL DR,WBD Mall Dr W after Elmwood Rd,0,1845,
42.741502,0,1844,-84.622364,,,,ELMWOOD RD & IRIS AVE,NBD Elmwood past Saginaw St,0,1844,
42.75742,0,6076,-84.483843,,,,,SBD Abbot before Asher,0,6076,
42.759266,0,6075,-84.48631,,,,,EBD Lake Lansing before Asher Ct,0,6075,
42.721706,0,3091,-84.424861,,,,W GRAND RIVER AVE & W OTTAWA ST,WBD Gr. River past Mall Entrance,0,3091,
42.669342,0,6073,-84.533163,,,,,WBD Miller past Beechfield,0,6073,
42.66919,0,6072,-84.532881,,,,,EBD Miller before Beechfield,0,6072,
42.722707,0,6071,-84.46243,,,,,SBD Hagadorn before Wilson,0,6071,
42.726578,0,5983,-84.612778,,,,E ST JOE HWY & CHESLEY ST,EBD St Joseph past Chesley,0,5983,
42.707987,0,1807,-84.55571,,,,S WASHINGTON AVE & W ROCKFORD RD,NBD Washington past Rockford R,0,1807,
42.63309,0,1937,-84.54305,,,,N EIFERT RD & WILCOX RD,SBD Eifert past Wilcox,0,1937,
42.702396,0,5817,-84.342482,,,,E GRAND RIVER AVE & BURKLEY RD,WBD Grand River before Burkley Rd,0,5817,
42.734152,0,2616,-84.462236,,,,N HAGADORN RD & CAHILL DR,SBD Hagadorn past Albert Ave,0,2616,
42.736505,0,2615,-84.462256,,,,N HAGADORN RD & LINDEN ST,SBD Hagadorn past Beech St,0,2615,
42.73842,0,2614,-84.462301,,,,587 N HAGADORN RD & SNYDER RD,SBD Hagadorn past Snyder Rd,0,2614,
42.729928,0,3805,-84.517286,,,,E KALAMAZOO ST & S FOSTER AVE,EBD Kalamazoo past Foster,0,3805,
42.72993,0,3804,-84.519731,,,,E KALAMAZOO ST & S HAYFORD AVE,EBD Kalamazoo past S Magnolia Av,0,3804,
42.721342,0,3801,-84.523769,,,,REGENT ST & WALSH ST,NBD Regent past Perkins St,0,3801,
42.687839,0,2736,-84.292767,,,,W GRAND RIVER AVE & McCormick,WBD Grand River past McCormick,0,2736,
42.723427,0,3802,-84.52373,,,,REGENT ST & WALSH ST,NBD Regent before Malcolm X St,0,3802,
42.693641,0,1777,-84.606717,,,,SHEFFIELD BLVD & BAYVIEW DR,WBD Sheffield past Bayview Dr,0,1777,
42.633003,0,3299,-84.541439,,,,WILCOX RD & TUPELO TRL,EBD Wilcox past Eifert Rd,0,3299,
42.69696,0,1908,-84.54811,,,,S CEDAR ST & E HOLMES RD,SBD Cedar past E Holmes Rd,0,1908,
42.69407,0,1909,-84.54812,,,,S CEDAR ST & E ROUSE ST,SBD Cedar past E Rouse St,0,1909,
42.70165,0,1906,-84.548113,,,,S CEDAR ST & PARIS AVE,SBD Cedar past Paris Ave,0,1906,
42.734189,0,168,-84.49361,,,,117 N HARRISON RD & ELM ST,SBD Harrison before Michigan,0,168,
42.70463,0,1905,-84.54809,,,,S CEDAR ST & E WILLARD AVE,SBD Cedar past E Greenlawn Ave,0,1905,
42.710266,0,1902,-84.548119,,,,,SBD Cedar past E Mt Hope Ave,0,1902,
42.71387,0,1901,-84.54722,,,,S CEDAR ST & past Isbell,SBD Cedar past Isbell St,0,1901,
42.683019,0,3452,-84.578642,,,,W JOLLY RD & CHRISTIANSEN RD,EBD Jolly past Hughes Rd,0,3452,
42.683018,0,3453,-84.57275,,,,W JOLLY RD & TRESSA DR,EBD Jolly at Tressa Dr,0,3453,
42.68302,0,3450,-84.585197,,,,W JOLLY RD & RICHMOND ST,EBD Jolly past Sidney St,0,3450,
42.683011,0,3451,-84.58203,,,,W JOLLY RD & PLEASANT GROVE RD,EBD Jolly past Pleasant Grove Rd,0,3451,
42.690292,0,3456,-84.567493,,,,S MARTIN LUTHER KING JR BLVD & PIERCE RD,NBD MLK past Pierce Rd,0,3456,
42.694363,0,3457,-84.567442,,,,S MARTIN LUTHER KING JR BLVD & LEGRAND DR,NBD MLK past Le Grand Dr,0,3457,
42.687518,0,3455,-84.567556,,,,S MARTIN LUTHER KING JR BLVD & VINCENT CT,NBD MLK past Vincent Ct,0,3455,
42.760748,0,5704,-84.528425,,,,LAKE LANSING RD & WOOD ST,WBD Lake Lansing before Chamberlain,0,5704,
42.757892,0,5705,-84.534815,,,,LAKE LANSING RD & COMMONWEALTH AVE,WBD Lake Lansing before Commonwealt,0,5705,
42.696484,0,3458,-84.567331,,,,S MARTIN LUTHER KING JR BLVD & WARWICK DR,NBD MLK before Holmes Rd,0,3458,
42.698237,0,3459,-84.567257,,,,S MARTIN LUTHER KING JR BLVD & SOUTHLAND ST,NBD MLK past Holmes Rd,0,3459,
42.761099,0,5700,-84.52299,,,,WOOD ST & LAKE LANSING RD,NBD Wood past Lake Lansing,0,5700,
42.760766,0,5703,-84.524918,,,,LAKE LANSING RD & WOOD ST,WBD Lake Lansing past Wood,0,5703,
42.725017,0,3899,-84.493967,,,,S HARRISON RD & LILAC AVE,SBD Harrison before Lilac Ave,0,3899,
42.683063,0,2684,-84.420653,,,,JOLLY RD & SUMMERGATE LN,WBD Jolly past Fairhills Dr,0,2684,
42.748256,0,3893,-84.493687,,,,N HARRISON RD & WOODINGHAM DR,SBD Harrison past Woodingham Dr,0,3893,
42.755075,0,3890,-84.49364,,,,N HARRISON RD & CROWN BLVD,SBD Harrison past Crown Blvd,0,3890,
42.740605,0,3896,-84.493686,,,,N HARRISON RD & SOUTHLAWN AVE,SBD Harrison before Wildwood Dr,0,3896,
42.687675,0,2682,-84.410299,,,,DOBIE RD & ALGOMA DR,NBD Dobie past Algoma Dr,0,2682,
42.743155,0,3895,-84.493719,,,,N HARRISON RD & NORTHLAWN ST,SBD Harrison before Northlawn St,0,3895,
42.68806,0,2738,-84.30314,,,,W GRAND RIVER AVE & Corwin,WBD Grand River past Corwin Rd,0,2738,
42.73373,0,1730,-84.50243,,,,MICHIGAN AVE & MORGAN LN,WBD Michigan past Friendship Cir,0,1730,
42.749369,0,2630,-84.408536,,,,MARSH RD & LAKE DR,SBD Marsh past W Lake Dr,0,2630,
42.705628,0,3483,-84.567708,,,,S MARTIN LUTHER KING JR BLVD & VICTOR AVE,SBD MLK past Rundle Ave,0,3483,
42.640176,0,4774,-84.519842,,,,W HOLT RD & ELM ST,EBD Holt Rd. past Elm,0,4774,
42.64036,0,4772,-84.53684,,,,W HOLT RD & N EIFERT RD,WBD Holt Rd. past Wyndam Hills,0,4772,
42.640142,0,4773,-84.522823,,,,W HOLT RD & AURELIUS RD,EBD Holt Rd past Aurelius,0,4773,
42.6403,0,4770,-84.53041,,,,W HOLT RD & JEFFERSON ST,WBD Holt Road past Dean,0,4770,
42.640362,0,4771,-84.53325,,,,W HOLT RD & PAGEANT WAY,WBD Holt Rd. past Hamilton,0,4771,
42.683199,0,5638,-84.601069,,,,W JOLLY RD & WEXFORD RD,WBD Jolly before Waverly Road,0,5638,
42.746849,0,96,-84.461769,,,,HASLETT RD & GREENCREST AVE,EBD Haslett past Hagadorn,0,96,
42.719395,0,5951,-84.469903,,,,S SERVICE RD,Lot 92 - MSU Clinical Center,0,5951,
42.72202,0,1990,-84.54532,,,,S CEDAR ST & E ELM ST,NBD Cedar past E Elm St,0,1990,
42.725601,0,5953,-84.475468,,,,RAMP 1,Ramp 1 Bay 2,0,5953,
42.725601,0,5952,-84.475468,,,,RAMP 1,Ramp 1 Bay 1,0,5952,
42.729961,0,1995,-84.528145,,,,E KALAMAZOO ST & ALLEN ST,EBD Kalamazoo past Lathrop St,0,1995,
42.737355,0,1626,-84.555078,,,,W SHIAWASSEE ST & N CAPITOL AVE,WBD Shiawassee before Seymour St,0,1626,
42.73747,0,1625,-84.55213,,,,,WBD Shiawassee St at Washington Ave,0,1625,
42.737164,0,1624,-84.545717,,,,E SHIAWASSEE ST & N CEDAR ST,EBD Shiawassee past Cedar St,0,1624,
42.725601,0,5959,-84.475468,,,,RAMP 1,Ramp 1 Bay 8,0,5959,
42.725601,0,5958,-84.475468,,,,RAMP 1,Ramp 1 Bay 7,0,5958,
42.724194,0,4077,-84.482533,,,,RED CEDAR RD & ELM ST,SBD Red Cedar before Wilson,0,4077,
42.737366,0,4070,-84.49358,,,,365 N HARRISON RD & HUNTINGTON RD,SBD Harrison past Grand River,0,4070,
42.741153,0,3208,-84.620165,,,,E SAGINAW HWY & IRIS AVE,WBD Saginaw before Mall Dr E,0,3208,
42.677993,0,5797,-84.513614,,,,DUNCKEL RD & PINE TREE RD,NBD Dunckel before Legacy (Trinity),0,5797,
42.672969,0,5796,-84.507643,,,,ENGLISH OAK DR & PINE TREE RD,WBD English Oak before Spanish Oak,0,5796,
42.753882,0,3964,-84.416585,,,,LAKE LANSING RD & BAYONNE AVE,EBD Lake Lansing past Bayonne Ave,0,3964,
42.753874,0,3965,-84.41097,,,,LAKE LANSING RD & HARVEY ST,EBD Lake Lansing past Cypress St,0,3965,
42.755509,0,3961,-84.421985,,,,LAKE LANSING RD & LAC DU MONT DR,WBD Lake Lansing past Bois Isle,0,3961,
42.721677,0,5810,-84.552447,,,,S WASHINGTON AVE & GROSS CT,SBD Washington past Elm,0,5810,
42.691039,0,5813,-84.410315,,,,DOBIE RD & SASHABAW DR,NBD Dobie at Sashabaw,0,5813,
42.679748,0,5815,-84.502798,,,,PATIENT CARE DR & PINE TREE RD,EBD Patient Care past PineTree,0,5815,
42.697495,0,5816,-84.568227,,,,W HOLMES RD & S MARTIN LUTHER KING JR BLVD,EBD Holmes before MLK,0,5816,
42.717734,0,5798,-84.630129,,,,CORNERSTONE DR & SANDERS RD,LCCWest,0,5798,
42.71188,0,2864,-84.446019,,,,E MOUNT HOPE RD & COPPERHILL DR,WBD Mt Hope before Comanche Dr,0,2864,
42.64026,0,41,-84.52392,,,,W HOLT RD & AURELIUS RD,WBD Holt past Aurelius,0,41,
42.709,0,2866,-84.432432,,,,4397 OKEMOS RD & KEWANEE WAY,SBD Okemos past Kewanee Way,0,2866,
42.70662,0,2867,-84.432438,,,,OKEMOS RD & PAST SCIENCE BOULEVARD,SBD Okemos past Science Pkwy,0,2867,
42.725459,0,3636,-84.577096,,,,EVERETT DR & WILLIAM ST,NBD Everett before Malcolm X,0,3636,
42.70858,0,4749,-84.493955,,,,S HARRISON RD & E MOUNT HOPE RD,SBD Harrison Rd @ Forest Acres CC,0,4749,
42.684479,0,48,-84.51287,,,,BEAU JARDIN DR,EBD BeauJardin past Dunckel,0,48,
42.689756,0,3374,-84.523433,,,,,SBD Aurelius past Cavanaugh Rd,0,3374,
42.716285,0,2573,-84.494619,,,,CRESCENT RD,WBD N Crescent past Harrison,0,2573,
42.693229,0,4619,-84.408897,,,,INGHAM COUNTY EXTENDED CARE & ALGOMA DR,NBD Ingham Cty Care Facility,0,4619,
42.697938,0,4618,-84.410444,,,,DOBIE RD & CSX TRANSPORTATION,SBD Dobie before Kinawa Dr,0,4618,
42.743187,0,3737,-84.51259,,,,E GRAND RIVER AVE & WOODRUFF AVE,WBD Grand River before Merrill St,0,3737,
42.747004,0,2913,-84.426322,,,,2111 HASLETT RD & past OKEMOS RD,EBD Haslett past N Okemos Rd,0,2913,
42.732663,0,4527,-84.477557,,,,E CIRCLE DR & BERKEY LOT ENTRANCE,WBD E Circle past Farm Lane,0,4527,
42.72253,0,2570,-84.493971,,,,S HARRISON RD & LILAC AVE,SBD Harrison Rd before Sever Dr,0,2570,
42.760004,0,2949,-84.503501,,,,COOLIDGE RD & W LAKE LANSING RD,SBD Coolidge Rd past W Lake Lansing,0,2949,
42.747515,0,4611,-84.419858,,,,BOIS ILE DR & HASLETT RD,SBD Bois Isle before Haslett Rd,0,4611,
42.749189,0,4610,-84.420259,,,,LAC DU MONT DR & LAKE LANSING RD,SBD LacDuMont before Bois Isle,0,4610,
42.711628,0,4615,-84.410297,,,,4496 DOBIE RD & FOREST HILLS DR,NBD Dobie past Forest Hills,0,4615,
42.685599,0,4614,-84.41033,,,,3576 DOBIE RD & ALGOMA DR,NBD Dobie past Jolly Rd,0,4614,
42.719142,0,4617,-84.414931,,,,W GRAND RIVER AVE & WASHINGTON HEIGHTS AVE,EBD Gr River past Washington Hts,0,4617,
42.715762,0,4616,-84.410273,,,,DOBIE RD & MINOKA TRL,NBD Dobie past Minoka Trail,0,4616,
42.7099,0,3348,-84.547911,,,,S CEDAR ST & WOODROW AVE,NBD Cedar past Riley St,0,3348,
42.71297,0,3349,-84.54736,,,,S CEDAR ST & NORMAN ST,NBD Cedar before Norman St,0,3349,
42.740883,0,2340,-84.563332,,,,W SAGINAW ST & WISCONSIN AVE,EBD Saginaw before Wisconsin Ave,0,2340,
42.694133,0,1776,-84.603513,,,,SHEFFIELD BLVD & S WAVERLY RD,WBD Sheffield Blvd past Waverly Rd,0,1776,
42.694975,0,3342,-84.547995,,,,S CEDAR ST & E ROUSE ST,NBD Cedar past Hunter Blvd,0,3342,
42.697847,0,3343,-84.547968,,,,S CEDAR ST & E ROUSE ST,NBD Cedar past Holmes Rd,0,3343,
42.757898,0,2224,-84.549377,,,,E THOMAS ST & GARY ST,EBD Thomas past Gary Ave,0,2224,
42.758013,0,2225,-84.545678,,,,E THOMAS ST & THOMPSON ST,EBD Thomas at Hall St,0,2225,
42.740844,0,2349,-84.51462,,,,E SAGINAW ST & KIPLING BLVD,EBD Saginaw past Kipling Blvd,0,2349,
42.7579,0,2223,-84.552928,,,,W THOMAS ST & TURNER ST,EBD Thomas past Turner St,0,2223,
42.70015,0,3344,-84.54793,,,,S CEDAR ST & E HODGE AVE,NBD Cedar past Brookland Blvd,0,3344,
42.702204,0,3345,-84.547965,,,,S CEDAR ST & DENVER ST,NBD Cedar past Paris Ave,0,3345,
42.730406,0,1696,-84.466063,,,,E GRAND RIVER AVE & STODDARD AVE,EBD Gr. River Ave before Spartan Av,0,1696,
42.729212,0,1697,-84.461803,,,,1604 E GRAND RIVER AVE & N HAGADORN RD,EBD Gr. River Ave past S Hagadorn,0,1697,
42.731825,0,1694,-84.471465,,,,E GRAND RIVER AVE & BOGUE ST,EBD Gr. River Ave past Bogue St,0,1694,
42.731215,0,1695,-84.469096,,,,E GRAND RIVER AVE & RIVER ST,EBD Gr. River Ave past River St,0,1695,
42.712028,0,5920,-84.580109,,,,W MOUNT HOPE AVE & BOSTON BLVD,EBD Mt Hope past Pleasant Grove,0,5920,
42.734686,0,1693,-84.488449,,,,MICHIGAN AVE & MICHIGAN TURNAROUND,EBD Michigan Ave before Delta St,0,1693,
42.733305,0,1690,-84.495724,,,,MICHIGAN AVE & MICHIGAN/HARRISON TURNAROUND,EBD Michigan past Brody Rd W,0,1690,
42.697593,0,1758,-84.565096,,,,W HOLMES RD & S WASHINGTON AVE,WBD Holmes past Washington Ave,0,1758,
42.698236,0,1757,-84.563905,,,,S WASHINGTON AVE & W HOLMES RD,SBD Washington past Berry Ave,0,1757,
42.70024,0,1756,-84.562271,,,,S WASHINGTON AVE & W HODGE AVE,SBD Washington past Hodge Ave,0,1756,
42.702888,0,1755,-84.560096,,,,S WASHINGTON AVE & DUNLAP ST,SBD Washington before Dunlap St,0,1755,
42.705008,0,1754,-84.558315,,,,S WASHINGTON AVE & WILLARD ST,SBD Washington past Greenlawn Av,0,1754,
42.706941,0,1753,-84.556754,,,,S WASHINGTON AVE & WAYBURN RD,SBD Washington past Wayburn Rd,0,1753,
42.709016,0,1752,-84.554997,,,,S WASHINGTON AVE & STRATHMORE RD,SBD Washington past Strathmore R,0,1752,
42.711333,0,1751,-84.553117,,,,S WASHINGTON AVE & Mt Hope,SBD Washington past Mt Hope Av,0,1751,
42.714787,0,1750,-84.552427,,,,S WASHINGTON AVE,SBD Washington past Barnes Ave,0,1750,
42.73369,0,1734,-84.51152,,,,E MICHIGAN AVE & DETROIT ST,WBD Michigan past Howard Ave,0,1734,
42.698675,0,1802,-84.563414,,,,S WASHINGTON AVE & W HOLMES RD,NBD Washington before Berry Ave,0,1802,
42.713773,0,2854,-84.498208,,,,MIDDLEVALE RD & S HARRISON RD,Middlevale Rd before S Crescent Rd,0,2854,
42.755852,0,3708,-84.51765,,,,TULANE DR & N HAYFORD AVE,WBDTulane past Hayford Ave,0,3708,
42.756892,0,3709,-84.521544,,,,TULANE DR & NORTHAMPTON WAY,WBD Tulane before Northampton Way,0,3709,
42.697613,0,4501,-84.576686,,,,W HOLMES RD & SIMKEN DR,WBD Holmes @ 1809 W Holmes,0,4501,
42.697594,0,4500,-84.571481,,,,W HOLMES RD & S MARTIN LUTHER KING JR BLVD,WBD Holmes at Sommerset,0,4500,
42.682916,0,4469,-84.517954,,,,,EBD Jolly Rd before Five Oaks Dr,0,4469,
42.748457,0,3702,-84.511675,,,,HOPKINS AVE & KIMBERLY DR,WBD Hopkins past Chester Rd,0,3702,
42.748477,0,3703,-84.515434,,,,HOPKINS AVE & WEBER DR,WBD Hopkins past Downer St,0,3703,
42.71157,0,53,-84.53821,,,,S PENNSYLVANIA AVE & MCKIM AVE,SBD Penn past Mt Hope,0,53,
42.739195,0,4509,-84.5466,,,,N CEDAR ST & ERIE ST,SBD Cedar at Riverfront Apts,0,4509,
42.753928,0,3707,-84.517677,,,,N HAYFORD AVE & RIDGELINE DR,NBD Hayford past Groesbeck Ave,0,3707,
42.748712,0,3704,-84.518899,,,,N HAYFORD AVE & HOPKINS AVE,NBD Hayford past Hopkins Ave,0,3704,
42.752013,0,3705,-84.518232,,,,N HAYFORD AVE & RIDGELINE DR,NBD Hayford past Ridgeline Dr,0,3705,
42.707305,0,3347,-84.547937,,,,S CEDAR ST & E ROCKFORD RD,NBD Cedar past Tisdale Ave,0,3347,
42.723132,0,4795,-84.52389,,,,REGENT ST & E MOUNT HOPE AVE,SBD Regent past Malcolm X,0,4795,
42.733679,0,1737,-84.520304,,,,E MICHIGAN AVE & MAGNOLIA STREET,WBD Michigan past Magnolia Av,0,1737,
42.576256,0,5463,-84.443224,,,,S JEFFERSON ST & E CHERRY ST,SBD Jefferson before Cherry,0,5463,
42.746729,0,2353,-84.511259,,,,CHESTER RD & HOPKINS AVE,NBD Chester past Woodruff Ave,0,2353,
42.697496,0,5450,-84.573936,,,,W HOLMES RD & EXPRESS CT,EBD Holmes past Express Ct.,0,5450,
42.66122,0,6039,-84.553737,,,,EDGEWOOD BLVD,WBD Edgewood before Richard,0,6039,
42.684127,0,5750,-84.508562,,,,BELLE CHASE BLVD & BEAU JARDIN DR,SBD Belle Chase past Beau Jardin,0,5750,
42.707646,0,6033,-84.54809,,,,,SBD Cedar at Edison Ave,0,6033,
42.730004,0,3405,-84.543733,,,,E KALAMAZOO ST & BEECH ST,WBD Kalamazoo before Beech St,0,3405,
42.735431,0,2536,-84.480856,,,,ALBERT AVE & MAC Avenue,EBD Albert past MAC,0,2536,
42.68894,0,3340,-84.54793,,,,S CEDAR ST & E EVERETTDALE AVE,NBD Cedar past Samantha Ave,0,3340,
42.72859,0,6035,-84.497094,,,,GARDEN CITY RD & E KALAMAZOO ST,NBD University Village East,0,6035,
42.736603,0,2535,-84.480781,,,,329 MAC AVE & MARIOTT SERVICE DRIVE,SBD MAC past Linden,0,2535,
42.73371,0,1736,-84.51795,,,,E MICHIGAN AVE & S FOSTER AVE,WBD Michigan past Foster Ave,0,1736,
42.577885,0,5467,-84.443221,,,,S JEFFERSON ST & W ELM ST,SBD Jefferson before Oak,0,5467,
42.755385,0,2652,-84.423069,,,,,EBD Lake Lansing before Bois Isle,0,2652,
42.74836,0,3733,-84.515078,,,,HOPKINS AVE & BLAKE AVE,EBD Hopkins past Downer Ave,0,3733,
42.66317,0,3334,-84.53814,,,,S PENNSYLVANIA AVE & PENNSYLVANIA/E I 96 CONNECTOR RAMP,NBD Pennsylvania past Pierpoint,0,3334,
42.752788,0,2655,-84.408662,,,,MARSH RD & LAKE DR,SBD Marsh past E Lake Lansing Ct.,0,2655,
42.740854,0,2348,-84.517286,,,,E SAGINAW ST & N FOSTER AVE,EBD Saginaw past N Foster Ave,0,2348,
42.565736,0,133,-84.44326,,,,MASON MEIJER LOT & E CHERRY ST,Mason Meijer,0,133,
42.724162,0,5741,-84.585387,,,,W MAIN ST & BRIDGE ST,EBD Main past Bridge St,0,5741,
42.768931,0,5742,-84.588883,,,,CAPITOL CITY BLVD & N GRAND RIVER AVE,NBD Cap. City Blvd @ Peckham,0,5742,
42.763317,0,5743,-84.483575,,,,ABBOT RD & ABBOT PLACE APT,NBD Abbot past Abbot Place,0,5743,
42.767576,0,5744,-84.483519,,,,ABBOT RD & S CHANDLER RD,NBD Abbot at EL Aquatic Center,0,5744,
42.687414,0,5745,-84.512535,,,,TRAPPERS COVE TRL,EBD Trappers Cove past Dunckel 1,0,5745,
42.687429,0,5746,-84.50895,,,,TRAPPERS COVE TRL,EBD Trappers Cove past Dunckel 2,0,5746,
42.588196,0,5468,-84.456155,,,,N CEDAR ST & CURTIS ST,SBD Cedar past Curtis,0,5468,
42.685055,0,5748,-84.504878,,,,TRAPPERS COVE TRL & BEAU JARDIN DR,EBD Trappers Cove past Dunckel 4,0,5748,
42.684528,0,5749,-84.505762,,,,BEAU JARDIN DR & TRAPPERS COVE TRL,WBD BeauJardin past Trappers Cove,0,5749,
42.68256,0,4379,-84.53826,,,,S PENNSYLVANIA AVE & E JOLLY RD,SBD Pennsylvania past Jolly Rd,0,4379,
42.725781,0,4814,-84.487051,,,,W SHAW LN & CHESTNUT RD,WBD N Shaw past Chestnut,0,4814,
42.74797,0,1832,-84.59625,,,,MORRIS AVE & OVERLEA DR,SBD Morris past Willow St,0,1832,
42.74646,0,1833,-84.59628,,,,MORRIS AVE & CORNELIA DR,SBD Morris past Cornelia Dr,0,1833,
42.748421,0,1830,-84.591945,,,,W WILLOW ST & Boynton,WBD Willow before Boynton Dr,0,1830,
42.74839,0,1831,-84.59407,,,,W WILLOW ST & GOULD RD,WBD Willow past Briarwood Dr,0,1831,
42.7411,0,1836,-84.59716,,,,W SAGINAW ST & FITTING AVE,WBD Saginaw past Morris Ave,0,1836,
42.74118,0,1837,-84.60036,,,,W SAGINAW ST & EDGEMONT BLVD,WBD Saginaw past Edgemont Blvd,0,1837,
42.743502,0,22,-84.625819,,,,NEW MALL DR,Lansing Mall,0,22,
42.740936,0,23,-84.601284,,,,W SAGINAW ST & W THOMAS L PKWY,EBD Saginaw past Waverly,0,23,
42.722939,0,3795,-84.533151,,,,S HOLMES ST & WALSH ST,SBD Holmes past Hazel St,0,3795,
42.724953,0,3794,-84.533137,,,,S HOLMES ST & CLIMAX ST,SBD Holmes past Malcolm X,0,3794,
42.74117,0,1838,-84.60408,,,,E SAGINAW HWY & N WAVERLY RD,WBD Saginaw past Waverly Rd,0,1838,
42.67889,0,4380,-84.53823,,,,S PENNSYLVANIA AVE & LOUISA ST,SBD Pennsylvania past Armstrong,0,4380,
42.718807,0,5926,-84.493608,,,,S HARRISON RD & S SERVICE RD,NBD Harrison past Service,0,5926,
42.671469,0,5588,-84.602971,,,,S WAVERLY RD & BRIDGEPORT DR,NBD Waverly past Bridgeport,0,5588,
42.747484,0,3792,-84.553106,,,,W GRAND RIVER AVE & E GRAND RIVER AVE,WBD Grand River past Washington,0,3792,
42.72993,0,2455,-84.51316,,,,,EBD Kalamazoo past Charles St,0,2455,
42.668076,0,5927,-84.542209,,,,MEIJER PENNSYLVANIA LOT,Meijer S Penn BC East Side,0,5927,
42.771101,0,4216,-84.482628,,,,MELROSE PLACE,Landing @ Chandler Crossing,0,4216,
42.72714,0,4862,-84.413866,,,,CENTRAL PARK DR & MARSH RD,EBD Central Park past Marsh,0,4862,
42.682955,0,2014,-84.52225,,,,,EBD Jolly past Aurelius Rd,0,2014,
42.727501,0,1596,-84.550638,,,,S GRAND AVE & E HILLSDALE ST,NBD Grand past Hillsdale,0,1596,
42.729506,0,4861,-84.409782,,,,TIMES SQUARE DR & 5TH AVE,SBD Times Square past Marsh,0,4861,
42.76256,0,2408,-84.583403,,,,DELTA RIVER DR & WESTBURY RD,WBD Delta River past Benton Blvd,0,2408,
42.761441,0,2409,-84.587655,,,,DELTA RIVER DR & Leon Street,WBD Delta River  before Leon Ave,0,2409,
42.721146,0,3834,-84.526336,,,,PERKINS ST & SHEPARD ST,WBD Perkins past Shepard St,0,3834,
42.72113,0,3835,-84.52878,,,,PERKINS ST & MCCULLOUGH ST,WBD Perkins past Lathrop St,0,3835,
42.696972,0,5382,-84.410287,,,,DOBIE RD & KINAWA DR,NBD Dobie before Kinawa,0,5382,
42.682838,0,5384,-84.421212,,,,JOLLY RD & FAIRHILLS DR,EBD Jolly past Fairhills Dr,0,5384,
42.730035,0,3831,-84.516819,,,,E KALAMAZOO ST & S FRANCIS AVE,WBD Kalamazoo past S Francis Ave,0,3831,
42.739857,0,5386,-84.544561,,,,N LARCH ST & ERIE ST,NBD Larch Street at Erie,0,5386,
42.661704,0,4733,-84.5389,,,,S CEDAR ST & CEDAR/PENNSYLVANIA CUTOFF,SBD Cedar past American,0,4733,
42.730841,0,3937,-84.462193,,,,N HAGADORN RD & S HAGADORN RD,SBD Hagadorn past Old Canton Ln,0,3937,
42.733464,0,1691,-84.49323,,,,MICHIGAN AVE & S HARRISON RD,EBD Michigan past Harrison Rd,0,1691,
42.722689,0,3838,-84.533004,,,,S HOLMES ST & E HAZEL ST,NBD Holmes past Walsh St,0,3838,
42.737323,0,4642,-84.571159,,,,W SHIAWASSEE ST & WESTMORELAND AVE,EBD Shiawassee before Howe St,0,4642,
42.740478,0,3933,-84.462297,,,,N HAGADORN RD & MOUNT VERNON AVE,SBD Hagadorn past Burcham Dr,0,3933,
42.733537,0,1675,-84.539934,,,,E MICHIGAN AVE & S 8TH ST,EBD Michigan after S Hosmer St,0,1675,
42.759125,0,5994,-84.481471,,,,E LAKE LANSING RD & W LAKE LANSING RD,WBD Lake Lansing at Harkson,0,5994,
42.747329,0,5997,-84.545943,,,,E GRAND RIVER AVE & N CEDAR ST,EBD Grand River after Cedar,0,5997,
42.581142,0,4032,-84.443949,,,,W SYCAMORE ST & E SYCAMORE ST,WBD Sycamore past Park St,0,4032,
42.716473,0,5991,-84.623914,,,,CORNERSTONE DR & W I 496,WBD Cornerstone past Snow,0,5991,
42.722299,0,5990,-84.622922,,,,SNOW RD & W I 496,SBD Snow Rd and Aspen,0,5990,
42.722451,0,5992,-84.622787,,,,SNOW RD & ASPEN DR,SBD Snow and Aspen,0,5992,
42.748355,0,1829,-84.586992,,,,W WILLOW ST & past Eastfield,WBD Willow past Eastfield Rd,0,1829,
42.701135,0,2880,-84.432438,,,,OKEMOS RD & past Sower,SBD Okemos past Sower Blvd,0,2880,
42.747506,0,5999,-84.541594,,,,E GRAND RIVER AVE & CASE ST,EBD Grand River after Case,0,5999,
42.747491,0,5998,-84.547467,,,,E GRAND RIVER AVE & CENTER ST,WBD Grand River past Cedar,0,5998,
42.665428,0,4737,-84.574585,,,,HAAG RD & YUNKER ST,SBD Haag Road Before Georgetown,0,4737,
42.769728,0,3562,-84.547623,,,,E SHERIDAN RD & CEDAR ST,WBD Sheridan past Cedar St,0,3562,
42.720998,0,3796,-84.532747,,,,PERKINS ST & BENSCH ST,EBD Perkins past Holmes St,0,3796,
42.753427,0,3730,-84.517849,,,,N HAYFORD AVE & NORTHAMPTON WAY,SBD Hayford past Groesbeck Ave,0,3730,
42.767086,0,3561,-84.542672,,,,N EAST ST & E FREDERICK AVE,NBD N East past Orchard Glen,0,3561,
42.76769,0,3566,-84.555835,,,,TURNER ST & W FREDERICK AVE,SBD Turner past Frederick St,0,3566,
42.764916,0,3567,-84.555836,,,,TURNER ST & CARRIER ST,SBD Turner before Paulson St,0,3567,
42.769748,0,3564,-84.55249,,,,E SHERIDAN RD & CRESTON AVE,WBD Sheridan past Creston Ave,0,3564,
42.769364,0,3565,-84.555834,,,,TURNER ST & E SHERIDAN RD,SBD Turner past Sheridan Rd,0,3565,
42.668112,0,5928,-84.542515,,,,MEIJER PENNSYLVANIA LOT,Meijer S Penn BC West Side,0,5928,
42.76216,0,3568,-84.555531,,,,TURNER ST & W JACKSON ST,SBD Turner before Filley,0,3568,
42.694561,0,4133,-84.407506,,,,CARRIAGE LANE APTS & CSX TRANSPORTATION,SBD Carriage Lane,0,4133,
42.741629,0,4803,-84.510725,,,,N HOWARD ST & MELODY LN,SBD Howard past Grand River,0,4803,
42.7411,0,3206,-84.61443,,,,E SAGINAW HWY & WINSFRED AVE,WBD Saginaw past Robbins Rd,0,3206,
42.745796,0,3841,-84.48364,,,,1135 ABBOT RD & E SAGINAW ST,NBD Abbot past Whitehills Dr,0,3841,
42.743541,0,3840,-84.483669,,,,941 ABBOT RD & NORTHLAWN ST,NBD Abbot past Library Ln,0,3840,
42.74925,0,3843,-84.483647,,,,1600 ABBOT RD & E SAGINAW ST,NBD Abbot before Loree Dr,0,3843,
42.66327,0,5691,-84.567725,,,,EDGEWOOD BLVD & CEDAR CONN/CEDAR RAMP,WBD Edgewood @ Edgewood Villas,0,5691,
42.753912,0,3845,-84.483652,,,,ABBOT RD & TAYLOR DR,NBD Abbot Rampart Way,0,3845,
42.72845,0,1698,-84.45887,,,,E GRAND RIVER AVE & OAKLAND DR,EBD Gr. River Ave at Maplewood Dr,0,1698,
42.689047,0,5694,-84.432356,,,,OKEMOS RD & FIELDSTONE DR,NBD Okemos before Fox Hollow,0,5694,
42.755487,0,3846,-84.483662,,,,ABBOT RD & ASHER CT,NBD Abbot past Taylor Dr,0,3846,
42.74825,0,1872,-84.55993,,,,N PINE ST & W GRAND RIVER AVE,SBD Pine St past W Willow St,0,1872,
42.760619,0,5698,-84.528115,,,,LAKE LANSING RD & WOOD ST,EBD Lake Lansing past Chamberlain,0,5698,
42.72784,0,1699,-84.45661,,,,E GRAND RIVER AVE & Brookfield,EBD Gr. River past Brookfield,0,1699,
42.665894,0,4739,-84.576744,,,,BALFOUR DR & SELFRIDGE BLVD,SBD Balfour Dr. before Georgetown,0,4739,
42.669269,0,4583,-84.549645,,,,E MILLER RD & GARDENIA AVE,EBD Miller past Gardenia Ave,0,4583,
42.74872,0,1871,-84.56194,,,,W WILLOW ST & CHRISTOPHER ST,EBD Willow at Christopher St,0,1871,
42.686787,0,1770,-84.592771,,,,REO RD & WAINWRIGHT AVE,WBD Reo Rd at Wainwright Ave,0,1770,
42.669214,0,5584,-84.602259,,,,W MILLER RD & S WAVERLY RD,EBD Miller past Waverly,0,5584,
42.734439,0,1622,-84.560129,,,,N PINE ST & W OTTAWA ST,SBD Pine St past Ottawa,0,1622,
42.718356,0,5499,-84.409492,,,,CENTRAL PARK DR & DOBIE RD,NBD Central Park past Grand River,0,5499,
42.774685,0,82,-84.589509,,,,W CIRCLE DR & E CIRCLE DR,Capital Regional Airport Auth. Term,0,82,
42.7599,0,3713,-84.522991,,,,WOOD ST & LAKE LANSING RD,NBD Wood before Lake Lansing Rd,0,3713,
42.763338,0,81,-84.580342,,,,DELTA RIVER DR & N GRAND RIVER AVE,WBD Delta River past N Grand Riv.,0,81,
42.685597,0,5491,-84.265022,,,,E GRAND RIVER AVE & HIGHVIEW DR,WBD Grand River past Skirting Av,0,5491,
42.632956,0,3300,-84.537133,,,,WILCOX RD & DOGWOOD DR,EBD Wilcox past Laurelwood Dr,0,3300,
42.722238,0,1713,-84.428004,,,,W GRAND RIVER AVE & OKEMOS RD,WBD Gr. River past Okemos Rd,0,1713,
42.720806,0,1712,-84.420748,,,,2040 W GRAND RIVER AVE & MERIDIAN MALL LOT,WBD Gr. River Ave past Marsh Rd,0,1712,
42.725185,0,2490,-84.533001,,,,S HOLMES ST & E MAIN ST,NBD Holmes before Malcolm X,0,2490,
42.72586,0,1717,-84.4493,,,,E GRAND RIVER AVE & Park Lake Rd.,WBD Gr. River past Park Lake R,0,1717,
42.72456,0,1716,-84.44176,,,,W GRAND RIVER AVE & SMALL ACRES LN,WBD Gr. River past Mohawk Rd,0,1716,
42.72359,0,1715,-84.43585,,,,W GRAND RIVER AVE & MONTROSE AVE,WBD Gr. River past Montrose Av,0,1715,
42.7231,0,1714,-84.43291,,,,W GRAND RIVER AVE & Grand View,WBD Gr. River past Grand View,0,1714,
42.728025,0,1719,-84.456732,,,,E GRAND RIVER AVE & E BROOKFIELD DR,WBD Gr.  River past E Brookfield,0,1719,
42.72715,0,1718,-84.45379,,,,E GRAND RIVER AVE & Northwind,WBD Gr. River past Northwind D,0,1718,
42.74127,0,2305,-84.577202,,,,N VERLINDEN AVE & W SAGINAW ST,SBD Cleo before Saginaw,0,2305,
42.717317,0,4720,-84.598382,,,,OLD LANSING RD & PACKARD RD,WBD Old Lansing  @ YMCA,0,4720,
42.682894,0,4858,-84.428087,,,,JOLLY RD & SERVICE DR,EBD Jolly before Alaidon,0,4858,
42.683127,0,3495,-84.583405,,,,W JOLLY RD & PLEASANT GROVE RD,WBD Jolly before Richmond St,0,3495,
42.735003,0,1658,-84.482675,,,,E GRAND RIVER AVE & ABBOT RD,WBD Gr. River past MAC AVE,0,1658,
42.729345,0,7,-84.551054,,,,S GRAND AVE & E LENAWEE ST,CATA Trans Center,0,7,
42.734914,0,1653,-84.4834,,,,GRAND RIVER AVE & ABBOT ROAD,EBD Gr. River past Abbot Rd,0,1653,
42.743463,0,4695,-84.511349,,,,CHESTER RD & WOODRUFF AVE,SBD Chester before Grand River,0,4695,
42.73308,0,1656,-84.47556,,,,621 E GRAND RIVER AVE & COLLINGWOOD DR,WBD Gr. River past Collingwood,0,1656,
42.733701,0,1657,-84.477862,,,,E GRAND RIVER AVE & DIVISION ST,WBD Gr. River Ave before Division,0,1657,
42.733559,0,1654,-84.47839,,,,GRAND RIVER AVE & BERKEY LOT ENTRANCE,EBD Gr. River Ave past Division St,0,1654,
42.732571,0,1655,-84.47467,,,,GRAND RIVER AVE & COLLINGWOOD DR,EBD Gr. River Ave past Farm Lane,0,1655,
42.727187,0,3665,-84.603074,,,,S WAVERLY RD & BLANCHE AVE,SBD Waverly before St Joseph St,0,3665,
42.73367,0,1739,-84.52646,,,,E MICHIGAN AVE & ALLEN ST,WBD Michigan past Marshall Ave,0,1739,
42.730847,0,3667,-84.602829,,,,S WAVERLY RD & W KALAMAZOO ST,NBD Waverly past Kalamazoo St,0,3667,
42.727416,0,3666,-84.60284,,,,S WAVERLY RD & BLANCHE AVE,NBD Waverly past St Joseph St,0,3666,
42.733925,0,3661,-84.594771,,,,W MICHIGAN AVE & N DEERFIELD AVE,WBD Michigan past Bon Air Rd,0,3661,
42.733916,0,3660,-84.59138,,,,W MICHIGAN AVE & N DEERFIELD AVE,WBD Michigan past Brynford Ave,0,3660,
42.733227,0,3663,-84.603001,,,,S WAVERLY RD & OTIS AVE,SBD Waverly past Michigan Ave,0,3663,
42.729976,0,2050,-84.540723,,,,E KALAMAZOO ST & S 8TH ST,WBD Kalamazoo before Hosmer,0,2050,
42.744172,0,3746,-84.552064,,,,N WASHINGTON AVE & W KILBORN ST,NBD Washington past Oakland Av,0,3746,
42.746284,0,3747,-84.552051,,,,N WASHINGTON AVE & E GRAND RIVER AVE,NBD Washington past Maple St,0,3747,
42.743628,0,3742,-84.533992,,,,E OAKLAND AVE & FARRAND ST,WBD Oakland past Cleveland St,0,3742,
42.732565,0,3668,-84.602817,,,,S WAVERLY RD & OTIS AVE,NBD Waverly before W Michigan Ave,0,3668,
42.743384,0,3740,-84.528562,,,,E OAKLAND AVE & MARYLAND AVE,WBD Oakland past June St,0,3740,
42.743573,0,3741,-84.53108,,,,E OAKLAND AVE & MAHLON ST,WBD Oakland past Mahlon St,0,3741,
42.682991,0,4620,-84.427215,,,,2112 JOLLY RD & SERVICE DR,WBD Jolly past Alaiedon,0,4620,
42.711861,0,4621,-84.453289,,,,E MOUNT HOPE RD & FAIRLANE DR,WBD Mt Hope past Hawthorne Lane,0,4621,
42.725601,0,5954,-84.475468,,,,RAMP 1,Ramp 1 Bay 3,0,5954,
42.724189,0,4627,-84.48768,,,,CHESTNUT RD & WILSON RD,SBD Chestnut before Wilson Rd,0,4627,
42.738529,0,2837,-84.493542,,,,N HARRISON RD & HUNTINGTON RD,NBD Harrison past Grand River,0,2837,
42.72402,0,4540,-84.477879,,,,FARM LN & E AGRICULTURE RD,NBD Farm past Wilson,0,4540,
42.686635,0,3159,-84.584693,,,,REO RD & RICHMOND ST,EBD Reo Rd past Sidney St,0,3159,
42.723137,0,4544,-84.481417,,,,WILSON RD & RED CEDAR RD,EBD Wilson past Red Cedar Rd,0,4544,
42.723121,0,4547,-84.473495,,,,WILSON RD & SCIENCE RD,EBD Wilson Rd past Science,0,4547,
42.723126,0,4546,-84.478813,,,,WILSON RD & FARM LN,EBD Wilson before Farm Ln,0,4546,
42.703163,0,3391,-84.51491,,,,STONELEIGH DR & ARBOR FOREST DR,NBD Stoneleigh past Tammany Ave,0,3391,
42.701454,0,3390,-84.5149,,,,STONELEIGH DR & FIRESIDE DR,NBD Stoneleigh past Fireside Dr,0,3390,
42.704662,0,3393,-84.521846,,,,FOREST RD & AURORA DR,WBD Forest Rd before Aurelius Rd,0,3393,
42.712134,0,3394,-84.523189,,,,AURELIUS RD & E MOUNT HOPE AVE,NBD Aurelius past Mt Hope Ave,0,3394,
42.735583,0,3012,-84.553937,,,,N CAPITOL AVE & W OTTAWA ST,SBD Capitol past W Ionia St,0,3012,
42.732871,0,3013,-84.553988,,,,S CAPITOL AVE & E MICHIGAN AVE,SBD Capitol before W Allegan St,0,3013,
42.713539,0,2574,-84.496059,,,,,WBD S Crescent before S Middlevale,0,2574,
42.717371,0,2575,-84.49883,,,,MIDDLEVALE RD & S HARRISON RD,Middlevale past N Crescent Rd,0,2575,
42.718843,0,2572,-84.493964,,,,HARRISON RD & S HARRISON RD,SBD Harrison before Service Rd,0,2572,
42.671147,0,5583,-84.603081,,,,S WAVERLY RD,SBD Waverly past Bridgeport,0,5583,
42.73101,0,3014,-84.553977,,,,S CAPITOL AVE & W WASHTENAW ST,SBD Capitol past W Washtenaw St,0,3014,
42.751526,0,4826,-84.462219,,,,N HAGADORN RD & APPLEGATE LN,NBD Hagadorn past Crestwood,0,4826,
42.746372,0,2378,-84.511395,,,,CHESTER RD & WOODRUFF AVE,SBD Chester past Woodruff Ave,0,2378,
42.718698,0,5913,-84.462437,,,,HAGADORN RD & S HAGADORN RD,SBD Hagadorn past Service,0,5913,
42.740874,0,3691,-84.520542,,,,E SAGINAW ST & N MAGNOLIA AVE,EBD Saginaw before Magnolia Ave,0,3691,
42.758341,0,2522,-84.473627,,,,3214 BIRCH ROW DR & RUTHERFORD AVE,WBD Birch Row past Porter Ave,0,2522,
42.747947,0,2377,-84.511393,,,,CHESTER RD & Hopkins Street,SBD Chester past Hopkins Ave,0,2377,
42.74345,0,4824,-84.471875,,,,ALTON RD & BURCHAM DR,NBD Alton across St. Thomas,0,4824,
42.717793,0,4595,-84.501175,,,,MIDDLEVALE RD & S HARRISON RD,Middlevale before Laundromat,0,4595,
42.730407,0,3593,-84.575842,,,,MCPHERSON AVE & W KALAMAZOO ST,SBD McPherson past Kalamazoo St,0,3593,
42.732322,0,3592,-84.575055,,,,MCPHERSON AVE & S JENISON AVE,SBD McPherson past Michigan,0,3592,
42.733843,0,3591,-84.573654,,,,W MICHIGAN AVE & S JENISON AVE,WBD Michigan past Jenison Ave,0,3591,
42.734558,0,3590,-84.572819,,,,N JENISON AVE & W OTTAWA ST,SBD Jenison past Ottawa St,0,3590,
42.725289,0,3596,-84.577244,,,,EVERETT DR & WILLIAM ST,SBD Everett past Malcolm X,0,3596,
42.71545,0,2592,-84.461977,,,,4630 S HAGADORN RD & TWYCKINGHAM DR,NBD Hagadorn at Glenwood Apt.,0,2592,
42.728761,0,3594,-84.577193,,,,MCPHERSON AVE & W KALAMAZOO ST,SBD McPherson past Lenawee St,0,3594,
42.730868,0,4181,-84.481601,,,,W CIRCLE DR,EBD W Circle @ Library,0,4181,
42.740618,0,4822,-84.477125,,,,BURCHAM DR & OLD HICKORY LN,EBD Burcham before Old Hickory,0,4822,
42.734134,0,2598,-84.462088,,,,N HAGADORN RD & CAHILL DR,NBD Hagadorn past Cahill Dr,0,2598,
42.736541,0,2599,-84.462108,,,,N HAGADORN RD & LINDEN ST,NBD Hagadorn past Linden St,0,2599,
42.741359,0,4823,-84.471837,,,,718 ALTON RD & BURCHAM DR,NBD Alton past Burcham,0,4823,
42.743101,0,1874,-84.559952,,,,N PINE ST & W OAKLAND AVE,SBD Pine St past W Oakland Ave,0,1874,
42.726464,0,4431,-84.552948,,,,W SAINT JOSEPH ST & S CAPITOL AVE,WBD St Joseph past Washington,0,4431,
42.697486,0,4430,-84.571161,,,,W HOLMES RD & S MARTIN LUTHER KING JR BLVD,EBD Holmes @ Somerset,0,4430,
42.712988,0,178,-84.479531,,,,COMMUTER LOT 89 & MSU MEDICAL CLINIC,Commuter Lot 89-4,0,178,
42.731747,0,177,-84.494031,,,,S HARRISON RD & BRODY RD S,Brody Complex,0,177,
42.682954,0,4345,-84.537398,,,,E JOLLY RD & S PENNSYLVANIA AVE,EBD Jolly after S Pennsylvania,0,4345,
42.740901,0,978,-84.566539,,,,W SAGINAW ST & N MARTIN LUTHER KING JR BLVD,EBD Saginaw past MLK,0,978,
42.728971,0,4439,-84.556938,,,,S WALNUT ST & W KALAMAZOO ST,NBD Walnut past Lenawee St,0,4439,
42.740622,0,4342,-84.560015,,,,N PINE ST & W SAGINAW ST,SBD Pine past Saginaw St,0,4342,
42.76297,0,3760,-84.577086,,,,N GRAND RIVER AVE & TECUMSEH AVE,WBD Grand River past Westwood Av,0,3760,
42.690496,0,2882,-84.4325,,,,OKEMOS RD & KNOB HILL DR,SBD Okemos past Knob Hill Dr,0,2882,
42.685772,0,2883,-84.432511,,,,OKEMOS RD & JOLLY OAK RD,SBD Okemos before Jolly Oaks Rd,0,2883,
42.682173,0,5548,-84.503752,,,,PINE TREE RD & PATIENT CARE DR,SBD PineTree past Jolly,0,5548,
42.696384,0,2881,-84.432462,,,,3965 OKEMOS RD & HERITAGE AVE,SBD Okemos past  Bennett Rd,0,2881,
42.711927,0,2887,-84.433113,,,,E MOUNT HOPE RD & INDIAN HILLS DR,WBD Mt Hope past Seminole Pl,0,2887,
42.759401,0,4828,-84.48452,,,,W LAKE LANSING RD & ARBOR GLEN DR,WBD Lake Lansing past Abbott,0,4828,
42.75938,0,4829,-84.487966,,,,W LAKE LANSING RD & N HARRISON RD,WBD Lake Lansing past Arbor Glenn,0,4829,
42.727281,0,5542,-84.412355,,,,1801 CENTRAL PARK DR & NEWMAN RD,WBD Central Park past Times Square,0,5542,
42.753804,0,4827,-84.462268,,,,5956 N HAGADORN RD & APPLEGATE LN,NBD Hagadorn past Applegate,0,4827,
42.692738,0,5540,-84.409218,,,,INGHAM COUNTY EXTENDED CARE & CSX TRANSPORTATION,SBD Ingham County Care Facility,0,5540,
42.746286,0,4825,-84.471882,,,,ALTON RD & WHITEHILLS DR,NBD Alton before Saginaw,0,4825,
42.682905,0,5546,-84.514406,,,,,EBD Jolly before Dunckel,0,5546,
42.731792,0,4531,-84.4844,,,,W CIRCLE DR & UNIVERSITY VILLAGE ENTRANCE,EBD W.Circle past Kalamazoo St,0,4531,
42.73842,0,4820,-84.480606,,,,MAC AVE & BEECH ST,NBD MAC past Elizabeth,0,4820,
42.72563,0,4533,-84.467669,,,,E SHAW LN & WILSON RD,WBD Shaw past Wilson,0,4533,
42.718702,0,6042,-84.49588,,,,,Multimodal Gateway,0,6042,
42.734663,0,6043,-84.504911,,,,MORGAN LN & FRANDOR CENTER,SBD Morgan before Michigan,0,6043,
42.71411,0,6046,-84.493995,,,,S HARRISON RD & CRESCENT RD,SBD Harrison before S Crescent,0,6046,
42.70462,0,4460,-84.547927,,,,S CEDAR ST & E WILLARD AVE,NBD Cedar past Park Blvd,0,4460,
42.733714,0,6045,-84.50431,,,,E MICHIGAN AVE & MORGAN LN,WBD Michigan before Morgan,0,6045,
42.669266,0,6048,-84.524265,,,,E MILLER RD & SCOTMAR DR,WBD Miller past Aurelius,0,6048,
42.669297,0,6049,-84.530917,,,,E MILLER RD & MARSCOT DR,WBD Miller at Norburn,0,6049,
42.632906,0,3306,-84.526511,,,,WILCOX RD & MEADOW DR,EBD Wilcox past Meadow Dr,0,3306,
42.740406,0,1609,-84.553885,,,,N CAPITOL AVE & W LAPEER ST,SBD Capitol past Saginaw St,0,1609,
42.725452,0,1898,-84.550013,,,,E MAIN ST & S GRAND AVE,EBD Malcolm X past S Grand Ave,0,1898,
42.741626,0,3870,-84.483807,,,,ABBOT RD & CENTERLAWN ST,SBD Abbot past Centerlawn St,0,3870,
42.736909,0,3872,-84.493434,,,,342 N HARRISON RD & HUNTINGTON RD,NBD Harrison Rd at Huntington,0,3872,
42.68659,0,3526,-84.53804,,,,S PENNSYLVANIA AVE & KENDON DR,NBD Pennsylvania past Kendon Dr,0,3526,
42.67231,0,1918,-84.54577,,,,S CEDAR ST & past Kaynorth,SBD Cedar past Kaynorth Rd,0,1918,
42.68129,0,3524,-84.5381,,,,S PENNSYLVANIA AVE & SIMS CT,NBD Pennsylvania past Willema St,0,3524,
42.68328,0,3525,-84.53808,,,,S PENNSYLVANIA AVE & E JOLLY RD,NBD Pennsylvania past Jolly Rd,0,3525,
42.67558,0,3522,-84.53807,,,,S PENNSYLVANIA AVE & DENNIS ST,NBD Pennsylvania past Keystone Av,0,3522,
42.715202,0,5895,-84.567336,,,,S MARTIN LUTHER KING JR BLVD & W BARNES AVE,NBD MLK past Barnes,0,5895,
42.670038,0,3520,-84.538057,,,,S PENNSYLVANIA AVE & ANDREW JACKSON DR,NBD Pennsylvania past  Miller,0,3520,
42.67133,0,3521,-84.53808,,,,S PENNSYLVANIA AVE & ANDREW JACKSON DR,NBD Pennsylvania past And. Jack.,0,3521,
42.68983,0,1911,-84.5481,,,,S CEDAR ST & E CAVANAUGH RD,SBD Cedar past E Cavanaugh Rd,0,1911,
42.6843,0,1913,-84.54816,,,,S CEDAR ST & CEDAR CT,SBD Cedar past E Syringa Dd,0,1913,
42.68742,0,1912,-84.54811,,,,S CEDAR ST & past Potter,SBD Cedar past E Potter Ave,0,1912,
42.682484,0,1915,-84.548114,,,,S CEDAR ST & E JOLLY RD,SBD Cedar past E Jolly Rd,0,1915,
42.649467,0,3282,-84.526703,,,,CEDAR ST,SBD Cedar past Fay Ave,0,3282,
42.67623,0,1917,-84.54767,,,,S CEDAR ST & E NORTHRUP ST,SBD Cedar past E Northrup St,0,1917,
42.67912,0,1916,-84.54814,,,,S CEDAR ST & ARMSTRONG RD,SBD Cedar past  Armstrong Rd,0,1916,
42.76071,0,3885,-84.502689,,,,W LAKE LANSING RD & COOLIDGE RD,EBD Lake Lansing Rd past Coolidge,0,3885,
42.760743,0,3887,-84.498486,,,,W LAKE LANSING RD & MARFITT RD,EBD Lake Lansing Rd at Marfitt Rd,0,3887,
42.686563,0,15,-84.603807,,,,BURNEWAY DR,EBD Burneway before Waverly,0,15,
42.683056,0,3448,-84.593311,,,,W JOLLY RD & WAINWRIGHT AVE,EBD Jolly before Wise Rd,0,3448,
42.705327,0,5719,-84.589209,,,,2900 VICTOR AVE & BEDFORD ST,WBD Victor before Bedford,0,5719,
42.730061,0,5718,-84.48939,,,,E KALAMAZOO ST & FARM LN,WBD Kalamazoo at Dem Hall Dr,0,5718,
42.680408,0,3445,-84.602984,,,,S WAVERLY RD & PHOENIX DR,NBD Waverly past Hartford Rd,0,3445,
42.674296,0,3444,-84.602983,,,,S WAVERLY RD & OLD FARM LN,NBD Waverly past Old Farm Ln,0,3444,
42.683074,0,3447,-84.597153,,,,W JOLLY RD & CONNERS AVE,EBD Jolly past Wexford Rd,0,3447,
42.682752,0,3446,-84.602996,,,,S WAVERLY RD,NBD Waverly before Jolly,0,3446,
42.759468,0,3889,-84.493621,,,,N HARRISON RD & W LAKE LANSING RD,SBD Harrison Rd past Tarleton Ave,0,3889,
42.760087,0,3888,-84.49464,,,,W LAKE LANSING RD & BURNT TREE LN,EBD Lk. Lansing Rd past Regency Dr,0,3888,
42.7587,0,2511,-84.463281,,,,N HAGADORN RD & COBBLERS CT,NBD Hagadorn past Birch Row Dr,0,2511,
42.707202,0,2698,-84.432277,,,,4321 OKEMOS RD & RIVERWOOD DR,NBD Okemos past Science Pkwy,0,2698,
42.701067,0,5939,-84.498779,,,,COLLINS RD & TECHNOLOGY BLVD,NBD Collins past Technology,0,5939,
42.701582,0,2696,-84.43229,,,,OKEMOS RD & before Sower,NBD Okemos before Sower Blvd,0,2696,
42.697422,0,2695,-84.432324,,,,OKEMOS RD & Kinawa Dr,NBD Okemos past Kinawa Dr,0,2695,
42.691275,0,2692,-84.432339,,,,OKEMOS RD & TAMARACK DR,NBD Okemos past Tamarack Dr,0,2692,
42.68528,0,2691,-84.432365,,,,3590 OKEMOS RD & ASSOCIATION DR,NBD Okemos past Jolly Oak Rd,0,2691,
42.632944,0,3305,-84.530816,,,,WILCOX RD & FOXWOOD DR,EBD Wilcox past Foxwood Dr,0,3305,
42.720418,0,3902,-84.493974,,,,S HARRISON RD & HARRISON RD,SBD Harrison before Trowbridge Rd,0,3902,
42.71228,0,54,-84.53803,,,,S PENNSYLVANIA AVE & E MOUNT HOPE AVE,NBD Penn past Mt Hope,0,54,
42.725601,0,5955,-84.475468,,,,RAMP 1,Ramp 1 Bay 4,0,5955,
42.68587,0,4378,-84.53822,,,,S PENNSYLVANIA AVE & KENDON DR,SBD Pennsylvania past Kendon Dr,0,4378,
42.741344,0,1604,-84.550518,,,,N GRAND AVE,NBD Grand past Saginaw St,0,1604,
42.728676,0,4761,-84.472171,,,,BOGUE ST & WATERS EDGE DR,SBD Bogue past Waters Edge,0,4761,
42.727227,0,4760,-84.493608,,,,S HARRISON RD & LILAC AVE,NBD Harrison before Kalamazoo,0,4760,
42.724403,0,4763,-84.579307,,,,WILLIAM ST & BUFFALO ST,EBD William past Buffalo,0,4763,
42.714409,0,4762,-84.60295,,,,S WAVERLY RD & LANSING RD,NBD Waverly past Old Lansing,0,4762,
42.724502,0,4764,-84.580167,,,,WILLIAM ST & OLDS AVE,WBD William past Buffalo,0,4764,
42.74069,0,4767,-84.62722,,,,S SERVICE DR & UNNAMED ST,EBD Frontage Road past Barbara,0,4767,
42.66935,0,4557,-84.552713,,,,W MILLER RD & COULSON CT,WBD  Miller past Coulson Ct,0,4557,
42.64027,0,4769,-84.52675,,,,W HOLT RD & PHILLIPS AVE,WBD Holt Road past Adelphe,0,4769,
42.74836,0,1825,-84.574991,,,,W WILLOW ST & CAWOOD ST,WBD Willow past Comfort Ave,0,1825,
42.74593,0,3230,-84.55996,,,,N PINE ST & W MAPLE ST,SBD Pine past W Maple St,0,3230,
42.669264,0,4745,-84.562176,,,,W MILLER RD & COOPER RD,EBD Miller past Washington,0,4745,
42.73745,0,1618,-84.55689,,,,N WALNUT ST & W GENESEE ST,NBD Walnut past Shiawassee St,0,1618,
42.738403,0,1619,-84.560041,,,,N PINE ST & Genesee,SBD Pine past Genessee St,0,1619,
42.70486,0,3534,-84.53805,,,,S PENNSYLVANIA AVE & HEALTH CARE DR,NBD Penn past Health Care Dr.,0,3534,
42.773996,0,4552,-84.591451,,,,W CIRCLE DR & E CIRCLE DR,W Circle Dr before Hangar Dr,0,4552,
42.729829,0,1614,-84.55399,,,,S CAPITOL AVE & W LENAWEE ST,SBD Capitol past Kalamazoo St,0,1614,
42.727243,0,1615,-84.554003,,,,S CAPITOL AVE & W SAINT JOSEPH ST,SBD Capitol past Hillsdale,0,1615,
42.689366,0,4004,-84.307333,,,,E GRAND RIVER AVE & CHURCHHILL DOWNS BLVD,EBD Grand River past Lay Ave,0,4004,
42.687666,0,4006,-84.299311,,,,W GRAND RIVER AVE & LOVE ST,EBD Grand River before Love St,0,4006,
42.687711,0,4007,-84.295383,,,,W GRAND RIVER AVE & VILLAGE DR E,EBD Grand River past Wint St,0,4007,
42.74957,0,5808,-84.462235,,,,N HAGADORN RD & CAMBRIA DR,NBD Hagadorn past Cambria,0,5808,
42.748365,0,1824,-84.571192,,,,W WILLOW ST & WESTMORELAND AVE,WBD Willow before Glenrose Ave,0,1824,
42.716993,0,5803,-84.478039,,,,FARM LN & CSX TRANSPORTATION,NBD Farm Lane before Green Way Dr.,0,5803,
42.716665,0,5802,-84.478186,,,,FARM LN & S SERVICE RD,SBD Farm Lane past Green Way Drive,0,5802,
42.727182,0,5801,-84.454314,,,,E GRAND RIVER AVE & DAWN AVE,EBD Grand River between Northwind D,0,5801,
42.624049,0,42,-84.547137,,,,WINDMILL BLVD & REMBRANT RD,WindMill Mobile Park,0,42,
42.748899,0,5807,-84.462404,,,,N HAGADORN RD & E SAGINAW ST,SBD Hagadorn past Cambria,0,5807,
42.728153,0,5806,-84.499343,,,,E KALAMAZOO ST & UNIVERSITY VILLAGE ENTRANCE,WBD Kalamazoo past U Vill entrance,0,5806,
42.728015,0,5805,-84.499048,,,,E KALAMAZOO ST & UNIVERSITY VILLAGE ENTRANCE,EBD Kalamazoo at U Vill entrance,0,5805,
42.62802,0,5804,-84.543,,,,N EIFERT RD,SBD Eifert past Haddon Hall,0,5804,
42.632973,0,3303,-84.534484,,,,WILCOX RD & FOXWOOD DR,EBD Wilcox past Heather Haven Dr,0,3303,
42.690943,0,3386,-84.5233,,,,AURELIUS RD & E CAVANAUGH RD,NBD Aurelius past Cavanaugh Rd,0,3386,
42.761012,0,4837,-84.463559,,,,N HAGADORN RD & INNKEEPERS CT,SBD Birch Row after Cobbler's,0,4837,
42.725601,0,5957,-84.475468,,,,RAMP 1,Ramp 1 Bay 6,0,5957,
42.72537,0,2875,-84.46789,,,,E SHAW LN & WILSON RD,EBD Shaw before Wilson,0,2875,
42.693218,0,3387,-84.523332,,,,AURELIUS RD & LUWANNA DR,NBD Aurelius past Luwanna Rd,0,3387,
42.709469,0,3621,-84.582295,,,,PLEASANT GROVE RD & COOPER AVE,SBD Pleasant Grove past Cooper,0,3621,
42.730765,0,2879,-84.486355,,,,RED CEDAR RD & SCIENCE RD,WBD Red Cedar before Chestnut Rd,0,2879,
42.728695,0,2878,-84.482845,,,,RED CEDAR RD & SCIENCE RD,NBD Red Cedar past W Shaw Ln,0,2878,
42.682631,0,6003,-84.561936,,,,,WBD Jolly before Washington,0,6003,
42.717605,0,2576,-84.501507,,,,MIDDLEVALE RD & S HARRISON RD,Middlevale near Laundromat,0,2576,
42.729841,0,3355,-84.537456,,,,E KALAMAZOO ST & BINGHAM ST,EBD Kalamazoo past S Pennsylvania,0,3355,
42.72986,0,3354,-84.540048,,,,E KALAMAZOO ST & S HOSMER ST,EBD Kalamazoo past S Hosmer St,0,3354,
42.729856,0,3356,-84.532432,,,,E KALAMAZOO ST & S HOLMES ST,EBD Kalamazoo past S Holmes St,0,3356,
42.71677,0,3351,-84.54613,,,,S CEDAR ST & BAKER ST,NBD Cedar past Baker St,0,3351,
42.7145,0,3350,-84.54686,,,,S CEDAR ST & ISBELL ST,NBD Cedar past Isbell St,0,3350,
42.729888,0,3353,-84.543684,,,,E KALAMAZOO ST & BEECH ST,EBD Kalamazoo past Beech St,0,3353,
42.73038,0,3470,-84.56679,,,,S Martin Luther King Jr Blvd & Kalamazoo,NBD MLK past W Kalamazoo St,0,3470,
42.751304,0,79,-84.549627,,,,TURNER ST & E NORTH ST,SBD Turner past North,0,79,
42.737159,0,4,-84.506217,,,,FRANDOR ACCESS RD & FRANDOR CENTER,WBD Frandor Center,0,4,
42.725601,0,5956,-84.475468,,,,RAMP 1,Ramp 1 Bay 5,0,5956,
42.714203,0,4710,-84.602582,,,,OLD LANSING RD & CADILLAC AVE,WBD Old Lansing before Waverly,0,4710,
42.74856,0,2545,-84.493551,,,,1412 N HARRISON RD & WOODINGHAM DR,NBD Harrison past Woodingham Dr,0,2545,
42.697695,0,4712,-84.598651,,,,W HOLMES RD & BERWICK DR,WBD Holmes at Berwick,0,4712,
42.68846,0,3527,-84.538,,,,S PENNSYLVANIA AVE & E CAVANAUGH RD,NBD Pennsylvania past Samantha St,0,3527,
42.740891,0,2338,-84.569654,,,,W SAGINAW ST & BARTLETT ST,EBD Saginaw past Bartlett St,0,2338,
42.729819,0,6037,-84.410125,,,,TIMES SQUARE DR,NBD Times Square before Marsh,0,6037,
42.746824,0,2544,-84.493517,,,,N HARRISON RD & LONGFELLOW DR,NBD Harrison past Pine Forest Dr,0,2544,
42.754915,0,5447,-84.419409,,,,LAKE LANSING RD & LAC DU MONT DR,EBD Lake Lansing past Bois Isle,0,5447,
42.747049,0,5446,-84.448597,,,,HASLETT RD & PARK LAKE RD,WBD Haslett past Park Lake,0,5446,
42.747024,0,5445,-84.434332,,,,HASLETT RD & OKEMOS RD,WBD Haslett past Westminster,0,5445,
42.765972,0,6036,-84.503345,,,,,SBD Coolidge at Watertower Place,0,6036,
42.733582,0,1681,-84.522024,,,,E MICHIGAN AVE & N CLEMENS AVE,EBD Michigan past Clemens Ave,0,1681,
42.73354,0,1680,-84.52566,,,,E MICHIGAN AVE & LESLIE ST,EBD Michigan past Sheperd St,0,1680,
42.686751,0,1768,-84.583674,,,,REO RD & RICHMOND ST,WBD Reo before Sidney St,0,1768,
42.698616,0,5934,-84.49893,,,,COLLINS RD & TECHNOLOGY BLVD,SBD Collins at MSU Horse Farms,0,5934,
42.700549,0,5933,-84.498927,,,,COLLINS RD & TECHNOLOGY BLVD,SBD Collins past Technology (north drive),0,5933,
42.733578,0,1684,-84.514862,,,,E MICHIGAN AVE & KIPLING BLVD,EBD Michigan past Mifflin Ave,0,1684,
42.726594,0,5931,-84.620172,,,,E ST JOE HWY & KIDS CT,EBD St Joseph past Snow,0,5931,
42.726702,0,5930,-84.620062,,,,E ST JOE HWY & KIDS CT,WBD St. Joe Before Snow,0,5930,
42.733308,0,1689,-84.499692,,,,MICHIGAN AVE & RENIGER CT,EBD Michigan past Highland Ave,0,1689,
42.696942,0,1763,-84.58231,,,,PLEASANT GROVE RD & W HOLMES RD,SBD Pleasant Grove past Holmes Rd,0,1763,
42.697593,0,1760,-84.567859,,,,W HOLMES RD & S MARTIN LUTHER KING JR BLVD,WBD Holmes past MLK,0,1760,
42.697622,0,1761,-84.579302,,,,W HOLMES RD & EXPRESS CT,WBD Holmes Rd before Simken Dr,0,1761,
42.689256,0,1766,-84.582409,,,,PLEASANT GROVE RD & RISDALE AVE,SBD Pleasant Grove past Risdale St,0,1766,
42.693327,0,1764,-84.582372,,,,PLEASANT GROVE RD & HILLCREST ST,SBD Pleasant Grove before Wadsworth,0,1764,
42.698034,0,5938,-84.498783,,,,COLLINS RD & TECHNOLOGY BLVD,NBD Collins at MSU Horse Farms,0,5938,
42.669171,0,6050,-84.530438,,,,,EBD Miller before Marscot,0,6050,
42.737307,0,3024,-84.54697,,,,E SHIAWASSEE ST & N CEDAR ST,WBD Shiawassee past Cedar,0,3024,
42.757278,0,3711,-84.523006,,,,WOOD ST & PEPPERTREE LN,NBD Wood past Northampton Way,0,3711,
42.683164,0,3498,-84.593041,,,,W JOLLY RD & WAINWRIGHT AVE,WBD Jolly past Wainwright Ave,0,3498,
42.683181,0,3499,-84.598166,,,,W JOLLY RD & CONNERS AVE,WBD Jolly past Conners Ave,0,3499,
42.683136,0,3496,-84.586584,,,,W JOLLY RD & SIDNEY ST,WBD Jolly past Sidney St,0,3496,
42.683145,0,3497,-84.588831,,,,W JOLLY RD & INGHAM ST,WBD Jolly past Ingham St,0,3497,
42.683127,0,3494,-84.578446,,,,W JOLLY RD & CHRISTIANSEN RD,WBD Jolly before Hughes Rd,0,3494,
42.72425,0,4536,-84.46659,,,,WILSON RD & CONRAD HALL,NBD Conrad past Wilson,0,4536,
42.683134,0,3492,-84.569338,,,,W JOLLY RD & S MARTIN LUTHER KING JR BLVD,WBD Jolly past MLK Blvd,0,3492,
42.683135,0,3493,-84.573069,,,,W JOLLY RD & TRESSA DR,WBD Jolly past Tressa Dr,0,3493,
42.687196,0,3490,-84.567716,,,,S MARTIN LUTHER KING JR BLVD & VINCENT CT,SBD MLK past Reo Rd,0,3490,
42.684556,0,3491,-84.56779,,,,S MARTIN LUTHER KING JR BLVD & N BRIARFIELD DR,SBD MLK past Briarfield Dr,0,3491,
42.683814,0,4570,-84.567803,,,,S MARTIN LUTHER KING JR BLVD & TRESSA DR,NBD MLK past Jolly Rd,0,4570,
42.73432,0,4478,-84.5378,,,,N PENNSYLVANIA AVE & S PENNSYLVANIA AVE,NBD Pennsylvania past Michigan,0,4478,
42.674314,0,4572,-84.60313,,,,S WAVERLY RD & OLD FARM LN,SBD Waverly before Old Farm Ln,0,4572,
42.733916,0,3658,-84.586995,,,,W MICHIGAN AVE & S ROSEMARY ST,WBD Michigan past Alger St,0,3658,
42.669196,0,4575,-84.586721,,,,W MILLER RD & PLEASANT GROVE RD,EBD Miller past Pleasant Grove Rd,0,4575,
42.669196,0,4576,-84.582352,,,,W MILLER RD & GROVENBURG RD,EBD Miller past Grovenberg Rd,0,4576,
42.669177,0,4577,-84.578093,,,,W MILLER RD & SELFRIDGE BLVD,EBD Miller past Woodgate Dr,0,4577,
42.667817,0,4578,-84.576241,,,,BALFOUR DR & SELFRIDGE BLVD,SBD Balfour Dr. past Miller,0,4578,
42.734488,0,3655,-84.577204,,,,N VERLINDEN AVE & INVERNESS AVE,SBD Verlinden before Michigan Ave,0,3655,
42.733915,0,3656,-84.58159,,,,W MICHIGAN AVE & N VERLINDEN AVE,WBD Michigan before Clare St,0,3656,
42.686639,0,4472,-84.505416,,,,TRAPPERS COVE TRL & BEAU JARDIN DR,NBD Trappers Cove past Beau Jardin,0,4472,
42.740223,0,3651,-84.577227,,,,N VERLINDEN AVE & N GENESEE ST,SBD Verlinden past Genesee Dr,0,3651,
42.72275,0,5500,-84.410144,,,,CENTRAL PARK DR & NEWMAN RD,NBD Central Park at Newman,0,5500,
42.73733,0,3653,-84.577234,,,,N VERLINDEN AVE & W SHIAWASSEE ST,SBD Verlinden past Shiawassee St,0,3653,
42.74751,0,6006,-84.550563,,,,E GRAND RIVER AVE & CASE ST,WBD Grand River past Turner,0,6006,
42.758623,0,2524,-84.478434,,,,3412 E LAKE LANSING RD & GOSSARD AVE,EBD Lk. Lansing Rd past Gossard Ave,0,2524,
42.74749,0,6004,-84.545034,,,,E GRAND RIVER AVE & N LARCH ST,WBD Grand River past Larch,0,6004,
42.747345,0,6005,-84.541987,,,,E GRAND RIVER AVE & CASE ST,EBD Grand River before Case,0,6005,
42.758328,0,2521,-84.469523,,,,BIRCH ROW DR & POLLARD AVE,WBD Birch Row past Gibson Ave,0,2521,
42.758364,0,2520,-84.466785,,,,3104 BIRCH ROW DR & HARDY AVE,WBD Birch Row before Hardy Ave,0,2520,
42.590867,0,4679,-84.4606,,,,N CEDAR ST & KERNS RD,SBD Cedar @ Kern,0,4679,
42.77418,0,4678,-84.48607,,,,Hunsaker St,SBD Hunsacker @ Village,0,4678,
42.725776,0,4537,-84.470715,,,,E SHAW LN & WILSON RD,WBD Shaw before Bogue,0,4537,
42.769778,0,6008,-84.483675,,,,S CHANDLER RD & ABBOT RD,SBD Chandler past Coleman,0,6008,
42.663011,0,4603,-84.548329,,,,EDGEWOOD BLVD & AMERICAN RD,EBD Edgewood past American,0,4603,
42.747902,0,2665,-84.408491,,,,MARSH RD & HASLETT RD,SBD Marsh before Haslett Rd,0,2665,
42.727302,0,2249,-84.577083,,,,EVERETT DR & W KALAMAZOO ST,SBD Everett past W Hillsdale St,0,2249,
42.72577,0,4813,-84.484508,,,,W SHAW LN & N SHAW LN,WBD N Shaw at Lot 79 (Stadium),0,4813,
42.653857,0,3280,-84.5319,,,,CEDAR ST & S CEDAR ST,SBD Cedar past Willoughby Rd,0,3280,
42.737313,0,2240,-84.566884,,,,W SHIAWASSEE ST & N BUTLER BLVD,EBD Shiawassee past MLK,0,2240,
42.725668,0,2844,-84.470703,,,,E SHAW LN & RAMP 1,EBD Shaw past Bogue,0,2844,
42.737019,0,2243,-84.57283,,,,N JENISON AVE & W IONIA ST,SBD Jenison past Shiawassee St,0,2243,
42.75527,0,2464,-84.503372,,,,COOLIDGE RD & N SHORE DR,NBD Coolidge past N Shore Dr,0,2464,
42.757212,0,2465,-84.503357,,,,COOLIDGE RD & N SHORE DR,NBD Coolidge before Ramblewood Dr,0,2465,
42.760254,0,2466,-84.503353,,,,COOLIDGE RD & W LAKE LANSING RD,NBD Coolidge before W Lake Lansing,0,2466,
42.743896,0,2460,-84.503363,,,,COOLIDGE RD & MELODY LN,NBD Coolidge past Melody Ln,0,2460,
42.747861,0,2461,-84.503419,,,,COOLIDGE RD & Lakeside Dr.,NBD Coolidge past Lakeside Dr,0,2461,
42.750984,0,2462,-84.503415,,,,COOLIDGE RD & FAIROAKS CT,NBD Coolidge past Fairoaks Ct,0,2462,
42.752925,0,2463,-84.503412,,,,COOLIDGE RD & FARWOOD DR,NBD Coolidge past Farwood Dr,0,2463,
42.757391,0,2468,-84.503504,,,,COOLIDGE RD & RAMBLEWOOD DR,SBD Coolidge past Ramblewood Dr,0,2468,
42.755682,0,2469,-84.503519,,,,COOLIDGE RD & RAMBLEWOOD DR,SBD Coolidge before N Shore Dr,0,2469,
42.689194,0,1785,-84.602346,,,,SUMPTER ST & Waverly,EBD Sumpter past Waverly Rd,0,1785,
42.740891,0,5753,-84.559622,,,,W SAGINAW ST & N CHESTNUT ST,EBD Saginaw past Pine,0,5753,
42.737221,0,5752,-84.554968,,,,W SHIAWASSEE ST & N CAPITOL AVE,EBD Shiawassee past Seymour,0,5752,
42.737239,0,5751,-84.558002,,,,W SHIAWASSEE ST & N CHESTNUT ST,EBD Shiawassee past Chestnut,0,5751,
42.729963,0,3402,-84.532284,,,,E KALAMAZOO ST & S HOLMES ST,WBD  Kalamazoo before Holmes St,0,3402,
42.699681,0,5757,-84.591997,,,,S DEERFIELD AVE & W HOLMES RD,SBD Deerfield past Herrick,0,5757,
42.74089,0,5754,-84.556563,,,,W SAGINAW ST & N WALNUT ST,EBD Saginaw past Walnut,0,5754,
42.683029,0,3449,-84.588057,,,,W JOLLY RD & INGHAM ST,EBD Jolly past Ingham St,0,3449,
42.712065,0,5759,-84.593519,,,,W MOUNT HOPE AVE,EBD Mt Hope @ Grand Haven Apts,0,5759,
42.773263,0,6002,-84.500484,,,,COLEMAN RD & HAMLET CIR,WBD Coleman past Hamlet,0,6002,
42.751129,0,5590,-84.538654,,,,N HIGH ST & DRURY LN,NBD High St before North,0,5590,
42.715917,0,5593,-84.399674,,,,W GRAND RIVER AVE & PADDOCK DR,WBD Gr River at Paddock Dr,0,5593,
42.730414,0,4876,-84.567317,,,,S MARTIN LUTHER KING JR BLVD & KINGSLEY CT,SBD MLK before Kalamazoo,0,4876,
42.762813,0,4871,-84.516573,,,,SAMS WAY & EASTWOOD TOWNE CENTER,WBD ETC Drive by Bravo,0,4871,
42.748365,0,1828,-84.583858,,,,W WILLOW ST & before Eastfield,WBD Willow before Eastfield Rd,0,1828,
42.764748,0,4873,-84.52011,,,,EASTWOOD TOWNE CENTER & EASTWOOD TOWNE CENTER,WBD @ Wal Mart,0,4873,
42.68774,0,5596,-84.292387,,,,W GRAND RIVER AVE & MCCORMICK ST,EBD Grand River At McCormick,0,5596,
42.746861,0,5599,-84.464364,,,,HASLETT RD & E SAGINAW ST,EBD Haslett before Hagadorn,0,5599,
42.688469,0,5598,-84.279187,,,,E GRAND RIVER AVE & WATER ST,WBD Grand River After Water ST,0,5598,
42.748403,0,1827,-84.579682,,,,W WILLOW ST & SUNSET AVE,WBD Willow past Sunset Ave,0,1827,
42.748393,0,1826,-84.576918,,,,W WILLOW ST & CLEO ST,WBD Willow past Cleo St,0,1826,
42.74882,0,1821,-84.56156,,,,W WILLOW ST & CHRISTOPHER ST,WBD Willow before Christopher St,0,1821,
42.74879,0,1820,-84.5587,,,,W WILLOW ST & N PINE ST,WBD Willow past Chestnut St,0,1820,
42.748355,0,1822,-84.566425,,,,W WILLOW ST & PRINCETON AVE,WBD Willow past Lansing Ave,0,1822,
42.76188,0,2411,-84.595987,,,,DELTA RIVER DR & NEWPORT DR,WBD Delta River at Newport Dr,0,2411,
42.760618,0,2410,-84.591465,,,,DELTA RIVER DR & Northwest,WBD Delta Riverpast Northwest Ave,0,2410,
42.762855,0,2412,-84.598875,,,,DELTA RIVER DR & CRANBROOK AVE,WBD Delta River past Amherst Dr,0,2412,
42.736055,0,2668,-84.409359,,,,MARSH RD & MONTGOMERY CT,SBD Marsh past Huntsville Dr,0,2668,
42.697612,0,5716,-84.574636,,,,W HOLMES RD & SIMKEN DR,WBD Holmes past Express Dr.,0,5716,
42.747375,0,3748,-84.550489,,,,E GRAND RIVER AVE & CENTER ST,EBD Grand River before Turner,0,3748,
42.769735,0,4498,-84.543383,,,,E SHERIDAN RD & N LARCH ST,WBD Sheridan past N East,0,4498,
42.760625,0,2797,-84.542739,,,,N EAST ST & BANGHART ST,NBD N East past Banghart,0,2797,
42.662675,0,5473,-84.198214,,,,STOCKBRIDGE RD,NBD M-52 before Highview Rd.,0,5473,
42.747857,0,3948,-84.408344,,,,MARSH RD & HASLETT RD,NBD Marsh past Haslett Rd,0,3948,
42.762888,0,4215,-84.483723,,,,ABBOT RD & SWART ST,Abbot Place Apt.,0,4215,
42.728501,0,6034,-84.497045,,,,GARDEN CITY RD & COMMUTER LOT 89,SBD University Villiage East,0,6034,
42.712047,0,5714,-84.478329,,,,FARM LN & COMMUTER LOT 89,SBD Farm before Mt Hope,0,5714,
42.57792,0,5470,-84.443074,,,,S JEFFERSON ST & W ELM ST,NBD Jefferson before Oak,0,5470,
42.729181,0,3638,-84.576653,,,,MCPHERSON AVE & W LENAWEE ST,NBD McPherson past Lenawee St,0,3638,
42.69001,0,5713,-84.49867,,,,Collins Rd & Dunckel Rd,NBD Collins past Dunckel,0,5713,
42.686702,0,5747,-84.505808,,,,TRAPPERS COVE TRL & BEAU JARDIN DR,EBD Trappers Cove past Dunckel 3,0,5747,
42.732747,0,3944,-84.410854,,,,MARSH RD & 5TH AVE,NBD Marsh before Tihart Rd,0,3944,
42.736493,0,3945,-84.409001,,,,MARSH RD & HUNTSVILLE DR,NBD Marsh past Huntsville Rd,0,3945,
42.738988,0,3946,-84.407852,,,,MARSH RD & HUNTSVILLE DR,NBD Marsh past Rolling Hills Dr,0,3946,
42.661897,0,5712,-84.552141,,,,EDGEWOOD BLVD & CEDAR CONN/CEDAR RAMP,WBD Edgewood past Celebration Dr.,0,5712,
42.668808,0,3276,-84.538256,,,,S PENNSYLVANIA AVE & RAMADA DR,SBD Pennsylvania past Miller Rd,0,3276,
42.66297,0,3277,-84.5383,,,,S PENNSYLVANIA AVE & PENNSYLVANIA/E I 96 CONNECTOR RAMP,SBD Pennsylvania before Pierpoint,0,3277,
42.669165,0,3275,-84.542129,,,,E MILLER RD & MEIJER PENNSYLVANIA LOT,EBD Miller past S Cedar St,0,3275,
42.729284,0,4072,-84.492094,,,,E KALAMAZOO ST & UNIVERSITY VILLAGE ENTRANCE,EBD Kalamazoo past Harrison,0,4072,
42.732612,0,3040,-84.55346,,,,W ALLEGAN ST & CAPITOL,EBD Allegan past Capitol Ave,0,3040,
42.743329,0,3584,-84.546561,,,,N CEDAR ST & MONROE ST,SBD Cedar past Oakland Ave,0,3584,
42.73158,0,1723,-84.47022,,,,E GRAND RIVER AVE & CEDAR ST,WBD Gr. River past Gunson St,0,1723,
42.65865,0,3279,-84.5368,,,,S CEDAR ST & LONG BLVD,SBD Cedar past Long Blvd,0,3279,
42.724733,0,3474,-84.569837,,,,S MARTIN LUTHER KING JR BLVD & W MAIN ST,SBD MLK before William St,0,3474,
42.717798,0,3476,-84.567838,,,,S MARTIN LUTHER KING JR BLVD & BRAMAN ST,SBD MLK past Pulaski St,0,3476,
42.747468,0,3579,-84.536409,,,,E GRAND RIVER AVE & TAFT ST,WBD Grand River past Massachusetts,0,3579,
42.748801,0,3578,-84.534688,,,,VERMONT AVE & TAFT ST,SBD Vermont Ave before Taft St,0,3578,
42.729036,0,3472,-84.567858,,,,S MARTIN LUTHER KING JR BLVD & KINGSLEY CT,SBD MLK past Kalamazoo St,0,3472,
42.720329,0,4285,-84.419399,,,,1937 W GRAND RIVER AVE & MERIDIAN MALL LOT,EBD Gr River past Marsh,0,4285,
42.75878,0,3575,-84.538144,,,,E GIER ST & 8TH AVE,EBS Gier past Eighth Ave,0,3575,
42.73821,0,2667,-84.40821,,,,MARSH RD & Rolling Hills Dr,SBD Marsh past Rolling Hills Dr,0,2667,
42.751306,0,3577,-84.534673,,,,VERMONT AVE & OAK ST,SBD Vermont past North St,0,3577,
42.711686,0,3479,-84.56789,,,,S MARTIN LUTHER KING JR BLVD & W MOUNT HOPE AVE,S MLK past Mt Hope Ave,0,3479,
42.758782,0,3573,-84.542408,,,,E GIER ST & 7TH AVE,EBD Gier past East St,0,3573,
42.741933,0,2666,-84.408151,,,,MARSH RD & NEMOKE TRL,SBD Marsh past Nemoke Trl,0,2666,
42.751809,0,4496,-84.538519,,,,E NORTH ST & N HIGH ST,WBD North before High St,0,4496,
42.751799,0,4494,-84.534906,,,,E NORTH ST & VERMONT AVE,WBD North past Vermont Ave,0,4494,
42.660736,0,5689,-84.557713,,,,EDGEWOOD BLVD & RICHARD RD,WBD Edgewood past Richard,0,5689,
42.762846,0,4491,-84.601873,,,,DELTA RIVER DR & CRANBROOK AVE,WBD Delta River before Waverly Rd,0,4491,
42.724085,0,5685,-84.49107,,,,BIRCH RD & FARM LN,NBD Birch at Wonders Halls,0,5685,
42.663998,0,5684,-84.54663,,,,EDGEWOOD BLVD & CEDAR CONN/CEDAR RAMP,WBD Edgewood at Southbrook Apts,0,5684,
42.726605,0,5687,-84.487774,,,,CHESTNUT RD & W SHAW LN,NBD Chestnut past Shaw,0,5687,
42.725641,0,5686,-84.490846,,,,W SHAW LN & BIRCH RD,EBD Shaw past Birch,0,5686,
42.663184,0,5680,-84.548802,,,,EDGEWOOD BLVD & CEDAR CONN/CEDAR RAMP,WBD Edgewood past American Road,0,5680,
42.729957,0,5683,-84.538488,,,,E KALAMAZOO ST & S PENNSYLVANIA AVE,WBD Kalamazoo past Pennsylvania,0,5683,
42.754798,0,5825,-84.419016,,,,LAKE LANSING RD,WBD Lake Lansing past Bayonne,0,5825,
42.669322,0,5586,-84.598491,,,,W MILLER RD & COACHLIGHT COMMON,WBD Miller past Coachlight,0,5586,
42.73365,0,1741,-84.53522,,,,E MICHIGAN AVE & past Holmes,WBD Michigan past Holmes St,0,1741,
42.669322,0,5587,-84.602062,,,,W MILLER RD & S WAVERLY RD,WBD Miller before Waverly,0,5587,
42.699307,0,5551,-84.514902,,,,STONELEIGH DR & FIRESIDE DR,NBD Stoneleigh past Wabash,0,5551,
42.721095,0,3836,-84.531015,,,,PERKINS ST & DAKIN ST,WBD Perkins past Dakin St,0,3836,
42.747097,0,2931,-84.428361,,,,HASLETT RD & WESTMINSTER WAY,WBD Haslett past N Okemos Rd,0,2931,
42.636689,0,3319,-84.523317,,,,AURELIUS RD & GROVE AVE,NBD Aurelius past Sycamore St,0,3319,
42.744537,0,2352,-84.511225,,,,CHESTER RD & COVINGTON CT,NBD Chester past Covington Ct,0,2352,
42.669151,0,5585,-84.59783,,,,W MILLER RD & COACHLIGHT COMMON,EBD Miller past Coachlight,0,5585,
42.667241,0,5489,-84.187633,,,,GRAND RIVER AVE W & Webberville Rd,WBD Grand River at Webberville,0,5489,
42.733693,0,1745,-84.548496,,,,E MICHIGAN AVE & MUSEUM ACCESS RAMP,WBD Michigan at Museum Drive,0,1745,
42.581242,0,3311,-84.445052,,,,W SYCAMORE ST & S PARK ST,WBD Sycamore past Park St,0,3311,
42.721031,0,3799,-84.528522,,,,PERKINS ST & ALLEN ST,EBD Perkins past Lathrop St,0,3799,
42.582932,0,3313,-84.452771,,,,N CEDAR ST & CENTER ST,NBD Cedar past Columbia St,0,3313,
42.588644,0,3315,-84.456645,,,,N CEDAR ST & CURTIS ST,NBD Cedar past Curtis St,0,3315,
42.668604,0,4702,-84.572804,,,,HAAG RD & YUNKER ST,SBD Haag past Miller,0,4702,
42.728111,0,4759,-84.502389,,,,E KALAMAZOO ST & MARIGOLD AVE,WBD Kalamazoo past Marigold,0,4759,
42.65134,0,4734,-84.52915,,,,CEDAR ST & S CEDAR ST,SBD Cedar before Delhi Commerce,0,4734,
42.755954,0,4053,-84.54273,,,,N EAST ST & RANDALL ST,NBD N East past Lake Lansing,0,4053,
42.744914,0,1834,-84.596343,,,,MORRIS AVE & MACON AVE,SBD Morris before Sylvan Ave,0,1834,
42.733664,0,1728,-84.497038,,,,MICHIGAN AVE & BRODY RD W,WBD Michigan before Kensington,0,1728,
42.730041,0,1642,-84.5463,,,,E KALAMAZOO ST & S CEDAR ST,WBD Kalamazoo past S Cedar St,0,1642,
42.734357,0,1726,-84.490772,,,,MICHIGAN AVE & BEAL ST,WBD  Michigan Ave past  Louis St,0,1726,
42.733902,0,1727,-84.492615,,,,MICHIGAN AVE & S HARRISON RD,WBD Michigan past Center St,0,1727,
42.732346,0,1724,-84.472791,,,,E GRAND RIVER AVE & ORCHARD ST,WBD Gr. River past Kedzie St,0,1724,
42.74235,0,1835,-84.59631,,,,MORRIS AVE & HAGAN ST,SBD Morris before Upton Rd,0,1835,
42.730999,0,1722,-84.467941,,,,E GRAND RIVER AVE & STODDARD AVE,WBD Gr. River past Stoddard Av,0,1722,
42.720481,0,4755,-84.49363,,,,S HARRISON RD & CRESCENT RD,NBD Harrison past Trowbridge,0,4755,
42.7288,0,1720,-84.45965,,,,E GRAND RIVER AVE & MAPLEWOOD DR,WBD Gr. River past Maplewood D,0,1720,
42.729867,0,1721,-84.463706,,,,E GRAND RIVER AVE & S HAGADORN RD,WBD Gr. River past N Hagadorn,0,1721,
42.67085,0,4383,-84.53827,,,,S PENNSYLVANIA AVE & E MILLER RD,SBD Pennsylvania pastAndrew Jackson,0,4383,
42.740947,0,3681,-84.572214,,,,W SAGINAW ST & WESTMORELAND AVE,EBD Saginaw before Westmoreland,0,3681,
42.6743,0,4382,-84.53826,,,,S PENNSYLVANIA AVE & KEYSTONE AVE,SBD Pennsylvania past Keystone,0,4382,
42.743592,0,3644,-84.557212,,,,W OAKLAND AVE & N WALNUT ST,WBD Oakland past Walnut St,0,3644,
42.73358,0,175,-84.48242,,,,W CIRCLE DR,MSU Union,0,175,
42.67712,0,4381,-84.53825,,,,S PENNSYLVANIA AVE & DENNIS ST,SBD Pennsylvania before Louisa St,0,4381,
42.733721,0,5675,-84.551285,,,,E MICHIGAN AVE & WASHINGTON STREET,WBD Michigan before Washington,0,5675,
42.762174,0,3759,-84.574186,,,,N GRAND RIVER AVE & TECUMSEH AVE,WBD Grand River past Tecumseh Av,0,3759,
42.761332,0,3758,-84.571261,,,,N GRAND RIVER AVE & CYNWOOD ST,WBD Grand River past Cynwood St,0,3758,
42.741155,0,1839,-84.606921,,,,E SAGINAW HWY & THOMAS L PKWY,WBD Saginaw past Thomas L Pkwy,0,1839,
42.702813,0,3614,-84.603035,,,,S WAVERLY RD & SANDHURST DR,NBD Waverly before Sandhurst Dr,0,3614,
42.70649,0,3615,-84.602986,,,,S WAVERLY RD & GLASGOW DR,NBD Waverly past Glasgow Dr,0,3615,
42.708951,0,3616,-84.601685,,,,MOORES RIVER DR & HERRICK DR,EBD Moores River past Waverly Rd,0,3616,
42.712065,0,3617,-84.595975,,,,W MOUNT HOPE AVE & MEDBURN AVE,EBD Mt Hope after Medbury Ave,0,3617,
42.712056,0,3618,-84.590375,,,,W MOUNT HOPE AVE & LEWTON PL,EBD W Mt Hope past Bedford Dr,0,3618,
42.750194,0,3750,-84.549505,,,,TURNER ST & CLINTON ST,NBD Turner before Beaver St,0,3750,
42.753856,0,3753,-84.556371,,,,N GRAND RIVER AVE & SEAGAR ST,WBD Grand River past Seager St,0,3753,
42.752253,0,3752,-84.55357,,,,W NORTH ST & N CAPITOL AVE,WBD North before Capitol Ave,0,3752,
42.746816,0,3580,-84.537847,,,,N PENNSYLVANIA AVE & EASTWOOD TOWNE CENTER,SBD Pennsylvania past Grand River,0,3580,
42.755521,0,3754,-84.55927,,,,N GRAND RIVER AVE & SADIE CT,WBD Grand River before Spikes Ln,0,3754,
42.760553,0,3757,-84.568742,,,,N GRAND RIVER AVE & HOLLYWOOD ST,WBD Grand River before Hollywood St,0,3757,
42.759022,0,3756,-84.565351,,,,N GRAND RIVER AVE & COOLIDGE ST,WBD Grand River before MLK Access,0,3756,
42.726643,0,3005,-84.552247,,,,S WASHINGTON AVE & E HILLSDALE ST,NBD Washington past St Joseph,0,3005,
42.57597,0,4632,-84.443066,,,,S JEFFERSON ST & E SOUTH ST,NBD Jefferson before Cherry,0,4632,
42.73159,0,5608,-84.56667,,,,S MARTIN LUTHER KING JR BLVD & Washtenaw,NBD MLK past Washtenaw,0,5608,
42.72168,0,4630,-84.47796,,,,FARM LN & SCIENCE RD,NBD Farm past Trowbridge,0,4630,
42.734638,0,4636,-84.508264,,,,N CLIPPERT ST & S CLIPPERT ST,NBD Clippert St past E Michigan,0,4636,
42.726212,0,67,-84.60488,,,,VALUE CITY LOT,EBD St Joseph before Waverly (store),0,67,
42.7371,0,2198,-84.54104,,,,E SHIAWASSEE ST & N CEDAR ST,EBD Shiawassee near Dorrance Pl,0,2198,
42.755542,0,4639,-84.540494,,,,LAKE LANSING RD & LAKE LANSING RD,WBD Lake Lansing past High St,0,4639,
42.747881,0,2801,-84.53862,,,,N HIGH ST & DRURY LN,NBD High past E Grand River Ave,0,2801,
42.728615,0,2568,-84.493986,,,,S HARRISON RD & MICHIGAN/HARRISON TURNAROUND,SBD Harrison past Kalamazoo St,0,2568,
42.697777,0,3368,-84.515002,,,,,SBD Stoneleigh past Wabash Rd,0,3368,
42.696722,0,3369,-84.516858,,,,,WBD Provincial House at Stoneleigh,0,3369,
42.75086,0,2561,-84.493671,,,,1545 N HARRISON RD & GAINSBOROUGH DR,SBD Harrison past Gainsborough Dr,0,2561,
42.753178,0,2560,-84.493606,,,,1739 N HARRISON RD & CRICKET LN,SBD Harrison past Blanchette Dr,0,2560,
42.703638,0,3366,-84.51502,,,,,SBD Stoneleigh past Forest Rd,0,3366,
42.701061,0,3367,-84.515011,,,,,SBD Stoneleigh before Fireside Dr,0,3367,
42.711535,0,3363,-84.523349,,,,AURELIUS RD & FOREST RD,SBD Aurelius past E Mt Hope Ave,0,3363,
42.7346,0,1732,-84.5084,,,,N CLIPPERT ST & E MICHIGAN AVE,SBD Clippert St before Michigan Ave,0,1732,
42.688034,0,159,-84.534484,,,,TRANTER ST & CATA HEADQUARTERS,CATA Offices,0,159,
42.717444,0,1749,-84.552437,,,,S WASHINGTON AVE & ISLAND AVE,SBD Washington before Baker St,0,1749,
42.72479,0,4477,-84.53818,,,,S PENNSYLVANIA AVE & CLIMAX ST,SBD Pennsylvania past Malcolm X,0,4477,
42.733541,0,1672,-84.549626,,,,E MICHIGAN AVE & MUSEUM EXIT RAMP,EBD Michigan past Grand Ave,0,1672,
42.709011,0,5907,-84.567412,,,,,NBD MLK past Gordon,0,5907,
42.725171,0,2586,-84.475076,,,,S SHAW LN & RAMP 1,EBD S Shaw at Chemistry,0,2586,
42.722592,0,2583,-84.49359,,,,S HARRISON RD & LILAC AVE,NBD Harrison past Wilson Rd,0,2583,
42.69039,0,3528,-84.53798,,,,S PENNSYLVANIA AVE & E CAVANAUGH RD,NBD Pennsylvania past Cavanaugh,0,3528,
42.683185,0,5950,-84.534549,,,,TRANTER ST,NBD Tranter past Jolly,0,5950,
42.730089,0,1644,-84.554739,,,,W KALAMAZOO ST & S CAPITOL AVE,WBD Kalamazoo before Townsend St,0,1644,
42.772403,0,2421,-84.588833,,,,CAPITOL CITY BLVD & W CIRCLE DR,NBD Capitol City past Commerce Dr,0,2421,
42.688088,0,5595,-84.303582,,,,W GRAND RIVER AVE & W GRAND RIVER AVE,EBD Grand River Before Corwin,0,5595,
42.713331,0,4811,-84.482477,,,,COMMUTER LOT 89,Commuter Lot 89-2,0,4811,
42.751559,0,3844,-84.48357,,,,,NBD Abbot past Woodland Pass,0,3844,
42.748314,0,1861,-84.594869,,,,W WILLOW ST & BRIARWOOD DR,EBD Willow at Gould,0,1861,
42.74812,0,1860,-84.59619,,,,MORRIS AVE & OVERLEA DR,NBD Morris before Willow St,0,1860,
42.748243,0,1863,-84.586464,,,,W WILLOW ST & EASTFIELD RD,EBD Willow past Eastfield Rd,0,1863,
42.714091,0,4810,-84.482525,,,,COMMUTER LOT 89,Commuter Lot 89-1,0,4810,
42.755754,0,3728,-84.519076,,,,TULANE DR & NORTHAMPTON WAY,EBD Tulane before Hayford Ave,0,3728,
42.748239,0,1864,-84.583703,,,,W WILLOW ST & Sunset St,EBD Willow before Sunset Ave,0,1864,
42.77302,0,5553,-84.487185,,,,COLEMAN RD & COOLIDGE RD,EBD Coleman before Hunsaker,0,5553,
42.728601,0,4863,-84.409035,,,,TIMES SQUARE DR & MARSH RD,NBD Times Square past Central Park,0,4863,
42.74823,0,1869,-84.56586,,,,W WILLOW ST & PRINCETON AVE,EBD Willow past MLK Jr Blvd,0,1869,
42.760016,0,3725,-84.523138,,,,WOOD ST & LAKE LANSING RD,SBD Wood past Lake Lansing  Rd,0,3725,
42.70804,0,4370,-84.53825,,,,S PENNSYLVANIA AVE & PACIFIC AVE,SBD Pennsylvania past Pacific Ave,0,4370,
42.70628,0,4371,-84.53822,,,,S PENNSYLVANIA AVE & LINCOLN AVE,SBD Pennsylvania past Tisdale,0,4371,
42.764349,0,3720,-84.582284,,,,N GRAND RIVER AVE & DELTA ST,EBD Grand River past Delta St,0,3720,
42.68799,0,4377,-84.53817,,,,S PENNSYLVANIA AVE & SAMANTHA ST,SBD Pennsylvania past Samantha,0,4377,
42.69495,0,4374,-84.53816,,,,S PENNSYLVANIA AVE & IRVINGTON AVE,SBD Pennsylvania past Irvington Ave,0,4374,
42.69286,0,4375,-84.53815,,,,S PENNSYLVANIA AVE & MAPLEHILL AVE,SBD Pennsylvania before Maplehill,0,4375,
42.756729,0,4839,-84.462438,,,,N HAGADORN RD & HORIZON DR,SBD Hagadorn before Horizon,0,4839,
42.759048,0,4838,-84.463859,,,,N HAGADORN RD & FARRINGTON CT,SBD Hagadorn at Farrington,0,4838,
42.75393,0,4045,-84.538677,,,,N HIGH ST & LAKE LANSING RD,NBD High past Whyte St,0,4045,
42.740843,0,3688,-84.529264,,,,E SAGINAW ST & MARYLAND AVE,EBD Saginaw past Maryland Ave,0,3688,
42.719385,0,4682,-84.409269,,,,CENTRAL PARK DR & NEWMAN RD,SBD Central Park before Grand River,0,4682,
42.72242,0,4683,-84.410292,,,,CENTRAL PARK DR & NEWMAN RD,SBD Central Park at Newman,0,4683,
42.733592,0,4529,-84.485884,,,,W CIRCLE DR & FARM LN,WBD W. Circle past Abbott Rd,0,4529,
42.667069,0,4681,-84.181277,,,,GRAND RIVER AVE W,WBD Grand River and Kalmink,0,4681,
42.759312,0,4831,-84.488571,,,,W LAKE LANSING RD & BURNT TREE LN,EBD Lake Lansing before Arbor Glen,0,4831,
42.759431,0,4830,-84.492184,,,,W LAKE LANSING RD & BURNT TREE LN,EBD Lake Lansing past Harrison,0,4830,
42.758249,0,4833,-84.470545,,,,BIRCH ROW DR & GIBSON AVE,EBD Birch Row past Pollard,0,4833,
42.740957,0,3680,-84.575052,,,,W SAGINAW ST & CAWOOD ST,EBD Saginaw past Cawood St,0,3680,
42.72608,0,4523,-84.480332,,,,N SHAW LN & SCIENCE RD,WBD Shaw before Red Cedar Rd,0,4523,
42.758237,0,4834,-84.46724,,,,BIRCH ROW DR & HARDY AVE,EBD Birch Row past Hardy,0,4834,
42.721321,0,4688,-84.482034,,,,RAMP 5,NBD Red Cedar and Trowbridge,0,4688,
42.760028,0,4836,-84.460883,,,,6180 BIRCH ROW DR & INNKEEPERS CT,EBD Birch Row past Briarwick,0,4836,
42.75398,0,2642,-84.416155,,,,LAKE LANSING RD & BUENA PKWY,WBD Lake Lansing past Buena Pkwy,0,2642,
42.702406,0,5818,-84.342801,,,,E GRAND RIVER AVE & BURKLEY RD,EBD Grand River past Burkly,0,5818,
42.719089,0,6059,-84.468639,,,,,EBD Service Road at Clinical Center,0,6059,
42.719859,0,4864,-84.594894,,,,OLD LANSING RD & OLDS AVE,WBD Old Lansing past Lansing Rd,0,4864,
42.715935,0,4751,-84.493956,,,,S HARRISON RD & CRESCENT RD,SBD Harrison past N Crescent,0,4751,
42.760311,0,2514,-84.461047,,,,BIRCH ROW DR & FARRINGTON CT,WBD Birch Row past Captain's Way,0,2514,
42.759338,0,2515,-84.461854,,,,BIRCH ROW DR & COACH HOUSE ST,WBD Birch Row past Briarwick Ct,0,2515,
42.746993,0,6038,-84.453332,,,,HASLETT RD & MERRITT RD,WBD Haslett past Merritt,0,6038,
42.591198,0,4865,-84.460415,,,,N CEDAR ST & KERNS RD,NBD Cedar at Kern,0,4865,
42.756708,0,2510,-84.462218,,,,N HAGADORN RD & HORIZON DR,NBD Hagadorn past Horizon Dr,0,2510,
42.714822,0,4752,-84.500933,,,,MIDDLEVALE RD & S HARRISON RD,Middlevale before Elementary School,0,4752,
42.760125,0,2512,-84.464595,,,,N HAGADORN RD & FARRINGTON CT,NBD Hagadorn past Farrington Ct,0,2512,
42.7609,0,2513,-84.463437,,,,N HAGADORN RD & before Cobb,WBD Birch Row before Cobbler's Dr,0,2513,
42.688771,0,2735,-84.285533,,,,W GRAND RIVER AVE & Jackson,WBD Grand River Ave before Jackson,0,2735,
42.743657,0,3869,-84.483816,,,,ABBOT RD & NORTHLAWN ST,SBD Abbot past Northlawn St,0,3869,
42.746002,0,3868,-84.483775,,,,1145 ABBOT RD & W SAGINAW ST,SBD Abbot past Saginaw St,0,3868,
42.685508,0,2730,-84.265047,,,,E GRAND RIVER AVE & N MULLET ST,EBD Grand River past Skirting Av,0,2730,
42.728431,0,4646,-84.477343,,,,AUDITORIUM DR & FARM LN,NBD - Fairchild Aud.,0,4646,
42.71182,0,5381,-84.432867,,,,E MOUNT HOPE RD & INDIAN HILLS DR,EBD Mt Hope before Seminole,0,5381,
42.772384,0,5985,-84.485908,,,,COLEMAN RD & CHESLEY ST,WBD Coleman at the Club,0,5985,
42.743367,0,3738,-84.515453,,,,E GRAND RIVER AVE & N FRANCIS AVE,WBD Grand River past Downer Ave,0,3738,
42.749232,0,3867,-84.483795,,,,ABBOT RD & ABBOTT WOODS DR,SBD Abbot past Loree Dr,0,3867,
42.751272,0,3866,-84.483791,,,,ABBOT RD & ABBOTT WOODS DR,SBD Abbot before Abbott Woods Dr,0,3866,
42.753465,0,3865,-84.4838,,,,ABBOT RD & RAMPART WAY,SBD Abbot past Rampart Way,0,3865,
42.75504,0,3864,-84.483797,,,,ABBOT RD & TAYLOR DR,SBD Abbot past Taylor Dr,0,3864,
42.733916,0,3657,-84.584452,,,,W MICHIGAN AVE & HAZE ST,WBD Michigan past Haze St,0,3657,
42.6898,0,4474,-84.508824,,,,DUNCKEL RD & DUNCKEL RD,EBD Dunckel Rd before I-496/127,0,4474,
42.6988,0,3533,-84.538047,,,,S PENNSYLVANIA AVE & S DEXTER DR,NBD Pennsylvania before Alden Sq,0,3533,
42.7086,0,3535,-84.53804,,,,S PENNSYLVANIA AVE & PACIFIC AVE,NBD Pennsylvania  past Pacific Av,0,3535,
42.736571,0,5886,-84.508409,,,,N CLIPPERT ST & SELLERS AVE,SBD Clippert past Sellers,0,5886,
42.736634,0,5885,-84.508262,,,,N CLIPPERT ST & SELLERS AVE,NBD Clippert past Vine,0,5885,
42.71036,0,3536,-84.53803,,,,S PENNSYLVANIA AVE & KENWOOD AVE,NBD Pennsylvania past Kenwood Av,0,3536,
42.71747,0,3539,-84.538,,,,S PENNSYLVANIA AVE & LINDBERGH DR,NBD Pennsylvania before Lindbergh,0,3539,
42.71526,0,3538,-84.53801,,,,S PENNSYLVANIA AVE & BAKER ST,NBD Pennsylvania past Parkdale Ave,0,3538,
42.719133,0,5385,-84.414526,,,,W GRAND RIVER AVE & WASHINGTON HEIGHTS AVE,WBD Gr River past Washington Hts,0,5385,
42.722097,0,1814,-84.552287,,,,S WASHINGTON AVE & E ELM ST,NBD Washington past Elm St,0,1814,
42.723404,0,1815,-84.552274,,,,S WASHINGTON AVE & E HAZEL ST,NBD Washington past Hazel St,0,1815,
42.74106,0,1816,-84.55686,,,,N WALNUT ST & W MADISON ST,NBD Walnut past Saginaw St,0,1816,
42.743879,0,1817,-84.556782,,,,N WALNUT ST & W KILBORN ST,NBD Walnut past Oakland Ave,0,1817,
42.712917,0,1810,-84.552354,,,,S WASHINGTON AVE & Bank Street,NBD Washington at Bank St,0,1810,
42.71527,0,1811,-84.552316,,,,S WASHINGTON AVE & W BARNES AVE,NBD Washington past Barnes Ave,0,1811,
42.716827,0,1812,-84.552303,,,,S WASHINGTON AVE & WOODLAWN AVE,NBD Washington past Baker St,0,1812,
42.71986,0,1813,-84.552276,,,,S WASHINGTON AVE & E SOUTH ST,NBD Washington Ave before South St,0,1813,
42.661937,0,5723,-84.551213,,,,EDGEWOOD BLVD & W EDGEWOOD/E EDGEWOOD TURN,EBD Edgewood before Celebration Dr,0,5723,
42.749918,0,5720,-84.423783,,,,2016 LAC DU MONT DR,NBD LacDuMont past Bois Isle,0,5720,
42.721145,0,3833,-84.524088,,,,PERKINS ST & REGENT ST,WBD Perkins past Regent St,0,3833,
42.74642,0,1818,-84.556744,,,,N WALNUT ST & W GRAND RIVER AVE,NBD Walnut past Maple St,0,1818,
42.748559,0,1819,-84.556767,,,,N WALNUT ST,NBD Walnut before Willow,0,1819,
42.677439,0,5724,-84.502752,,,,PATIENT CARE DR & PINE TREE RD,WBD Patient Care before Pine Tree,0,5724,
42.74838,0,3732,-84.518347,,,,HOPKINS AVE & N HAYFORD AVE,EBD Hopkins past Hayford,0,3732,
42.712168,0,2740,-84.37758,,,,W GRAND RIVER AVE & VAN ATTA RD,WBD Grand River Ave at Spruce Rd,0,2740,
42.743988,0,5649,-84.537874,,,,N PENNSYLVANIA AVE & CADY CT,SBD Pennsylvania before Oakland,0,5649,
42.693485,0,6074,-84.432493,,,,OKEMOS RD & CLUB MERIDIAN DR,SBD Okemos before Club Meridian,0,6074,
42.727949,0,4596,-84.501898,,,,E KALAMAZOO ST & MARIGOLD AVE,EBD Kalamazoo past Marigold,0,4596,
42.75162,0,3731,-84.518527,,,,N HAYFORD AVE & RIDGELINE DR,SBD Hayford past Ridgeline Dr,0,3731,
42.767652,0,3769,-84.601739,,,,N WAVERLY RD & FRANETTE RD,NBD Waverly past Franette Rd,0,3769,
42.74076,0,4844,-84.478989,,,,BURCHAM DR & OLD HICKORY LN,WBD Burcham past Old Hickory,0,4844,
42.715808,0,4846,-84.462394,,,,HAGADORN RD & BRIARCLIFF ST,SBD Hag across from Glenwood Apt,0,4846,
42.758234,0,4832,-84.473765,,,,BIRCH ROW DR & PORTER AVE,EBD Birch Row past Rutherford,0,4832,
42.754008,0,4840,-84.46248,,,,1801 N HAGADORN RD & APPLEGATE LN,SBD Hagadorn before Applegate,0,4840,
42.691359,0,4422,-84.602987,,,,S WAVERLY RD & S WAVERLY RD,NBD Waverly past Lochmoor Dr,0,4422,
42.74541,0,4842,-84.472338,,,,ALTON RD & WHITEHILLS DR,SBD Alton Street before Whitehills,0,4842,
42.704686,0,2038,-84.518113,,,,FOREST RD & AURORA DR,WBD Forest past Aurora Rd,0,2038,
42.729684,0,4051,-84.603025,,,,S WAVERLY RD & W KALAMAZOO ST,SBD Waverly before Blanche Ave,0,4051,
42.749817,0,3949,-84.4084,,,,5859 MARSH RD & LAKE CT,NBD Marsh past Lake Rd,0,3949,
42.736376,0,6070,-84.544526,,,,,NBD Larch before Shiawassee,0,6070,
42.70269,0,3484,-84.56746,,,,S Martin Luther King Jr Blvd & Dunlap St,SBD MLK before Dunlap St,0,3484,
42.740785,0,4799,-84.507888,,,,E SAGINAW ST & FRANDOR AVE,EBD Saginaw past Clippert,0,4799,
42.758653,0,4835,-84.462729,,,,BIRCH ROW DR & N HAGADORN RD,EBD Birch Row past Hagadorn,0,4835,
42.764513,0,4694,-84.515489,,,,EASTWOOD TOWNE CENTER & LAKE LANSING RD,EBD Drive South of NCG,0,4694,
42.73265,0,3544,-84.53785,,,,S PENNSYLVANIA AVE & E MICHIGAN AVE,NBD Pennsylvania past Eureka St,0,3544,
42.688316,0,4018,-84.278893,,,,E GRAND RIVER AVE & WATER ST,EBD Grand River at Water St,0,4018,
42.721099,0,3540,-84.537942,,,,S PENNSYLVANIA AVE & CANADIAN NATIONAL RAILWAY,NBD Pennsylvania before Haco Dr,0,3540,
42.72378,0,3541,-84.53803,,,,S PENNSYLVANIA AVE & CLIMAX ST,NBD Pennsylvania past Hazel St,0,3541,
42.72746,0,3542,-84.53793,,,,S PENNSYLVANIA AVE & HEALD PL,NBD Pennsylvania past Heald Pl,0,3542,
42.73038,0,3543,-84.53789,,,,S PENNSYLVANIA AVE & E KALAMAZOO ST,NBD Pennsylvania past Kalamazoo,0,3543,
42.736906,0,1601,-84.550546,,,,N GRAND AVE & E IONIA ST,NBD Grand before Shiawassee St,0,1601,
42.734257,0,1600,-84.55056,,,,N GRAND AVE & E MICHIGAN AVE,NBD Grand Ave past E Michigan Ave,0,1600,
42.737649,0,1603,-84.550533,,,,N GRAND AVE & Shiawassee,NBD Grand past Shiawassee St,0,1603,
42.74125,0,3548,-84.537704,,,,N PENNSYLVANIA AVE & E SAGINAW ST,NBD Pennsylvania past Saginaw St,0,3548,
42.743925,0,3549,-84.537727,,,,N PENNSYLVANIA AVE & CADY CT,NBD Pennsylvania past Oakland Ave,0,3549,
42.704686,0,1805,-84.558425,,,,S WASHINGTON AVE & W GREENLAWN AVE,NBD Washington before Greenlawn,0,1805,
42.751683,0,4512,-84.536282,,,,E NORTH ST & NEW YORK AVE,EBD North before Massachussetts,0,4512,
42.751985,0,3789,-84.553313,,,,W NORTH ST & N CAPITOL AVE,EBD North before Washington Ave,0,3789,
42.724535,0,1,-84.420488,,,,MERIDIAN MALL LOT,Meridian Mall,0,1,
42.684883,0,3988,-84.410467,,,,DOBIE RD & SPRING LAKE DR,SBD Dobie before E Jolly Rd,0,3988,
42.707181,0,3984,-84.410431,,,,DOBIE RD & BIRCHWOOD DR,SBD Dobie at Birchwood Dr,0,3984,
42.704371,0,3985,-84.410267,,,,4234 DOBIE RD & HATCH RD,NBD Dobie before Hatch Rd,0,3985,
42.687541,0,3987,-84.410447,,,,DOBIE RD & ALGOMA DR,SBD Dobie at Algoma Dr,0,3987,
42.733309,0,1688,-84.501485,,,,MICHIGAN AVE & RENIGER CT,EBD Michigan Ave past Friendship Cl,0,1688,
42.716451,0,3981,-84.410406,,,,DOBIE RD & COUNTRY WAY DR E,SBD Dobie past Hamilton Rd,0,3981,
42.714438,0,3982,-84.4104,,,,DOBIE RD & INDIAN WAY,SBD Dobie past Chief Okemos Cir,0,3982,
42.71136,0,3983,-84.410445,,,,DOBIE RD & FOREST HILLS DR,SBD Dobie at Forest Hills,0,3983,
42.687557,0,1788,-84.595533,,,,RONALD ST & STILLWELL AVE,EBD Ronald  before Atlanta Pl,0,1788,
42.686689,0,1789,-84.592341,,,,REO RD & BALLARD RD,EBD Reo past Wainwright Ave,0,1789,
42.712042,0,4003,-84.377396,,,,W GRAND RIVER AVE & OAK,EBD Grand River past Van Atta,0,4003,
42.743033,0,3649,-84.573246,,,,W OAKLAND AVE & N JENISON AVE,WBD Oakland past Jenison Ave,0,3649,
42.747003,0,2848,-84.454777,,,,HASLETT RD & WOODSIDE DR,WBD Haslett past Deerpath Ln,0,2848,
42.747006,0,2849,-84.45823,,,,1655 HASLETT RD & PARKVALE AVE,WBD Haslett past Ferndale Ave,0,2849,
42.691573,0,1780,-84.611542,,,,SEAWAY DR & SEAWAY DR,SBD Seaway past Sheffield Blvd,0,1780,
42.689158,0,1781,-84.610314,,,,SEAWAY DR & GLENBURNE BLVD,SBD Seaway past Glenburne Blvd,0,1781,
42.741066,0,4339,-84.605766,,,,E SAGINAW HWY & W THOMAS L PKWY,EBD Saginaw before Dibble Blvd,0,4339,
42.725224,0,2845,-84.464464,,,,E SHAW LN & AKERS ENTRANCE,EBD Shaw before Akers Dr,0,2845,
42.729206,0,2842,-84.494551,,,,E KALAMAZOO ST & FARM LN,WBD Kalamazoo past Harrison,0,2842,
42.730105,0,2843,-84.489108,,,,E KALAMAZOO ST & UNIVERSITY VILLAGE ENTRANCE,EBD Kalamazoo past Dem Hall Dr,0,2843,
42.689194,0,1786,-84.599559,,,,SUMPTER ST & ANSON ST,EBD Sumpter past Anson St,0,1786,
42.689257,0,1787,-84.596834,,,,SUMPTER ST & STILLWELL AVE,EBD Sumpter before Stillwell Ave,0,1787,
42.629621,0,3321,-84.523202,,,,AURELIUS RD & DONCASTER AVE,NBD Aurelius past Doncaster,0,3321,
42.756686,0,3727,-84.521544,,,,TULANE DR & NORTHAMPTON WAY,EBD Tulane past Northampton Way,0,3727,
42.69935,0,3613,-84.60301,,,,,NBD Waverly at Hunters Ridge Dr,0,3613,
42.662845,0,5472,-84.19836,,,,STOCKBRIDGE RD & HIGHVIEW DR,SBD M-52 past Highview Rd,0,5472,
42.738375,0,1610,-84.553898,,,,N CAPITOL AVE & W SHIAWASSEE ST,SBD Capitol past Genessee St,0,1610,
42.67946,0,3523,-84.53809,,,,S PENNSYLVANIA AVE & SHIRLEY ST,NBD  Pennsylvania past Dennis St,0,3523,
42.644981,0,3327,-84.520254,,,,CEDAR ST & NORTH ST,NBD Cedar St at North St,0,3327,
42.646995,0,3328,-84.522546,,,,CEDAR ST & E LENAWEE ST,NBD Cedar St before Keller Rd,0,3328,
42.6481,0,3329,-84.52421,,,,CEDAR ST & NORTH ST,NBD Cedar past Aurelius Rd,0,3329,
42.734177,0,6056,-84.552169,,,,,NBD Washington past Michigan,0,6056,
42.730081,0,3045,-84.557404,,,,W KALAMAZOO ST & S WALNUT ST,WBD Kalamazoo past S Walnut St,0,3045,
42.730118,0,3047,-84.564123,,,,W KALAMAZOO ST & MICHIGAN STATE LIBRARY/MUSEUM,WBD Kalamazoo before S Butler Blvd,0,3047,
42.730099,0,3046,-84.560623,,,,W KALAMAZOO ST & S PINE ST,WBD Kalamazoo past S Pine St,0,3046,
42.689302,0,1774,-84.601769,,,,SUMPTER ST & S WAVERLY RD,WBD Sumpter before Waverly,0,1774,
42.665124,0,4705,-84.574339,,,,HAAG RD & SELFRIDGE BLVD,NBD Haag past Georgetown,0,4705,
42.664283,0,4704,-84.575689,,,,GEORGETOWN BLVD & SELFRIDGE BLVD,EBD Georgetown past Balfour,0,4704,
42.709394,0,5379,-84.432284,,,,OKEMOS RD & KEWANEE WAY,NBD Okemos at Kewanee,0,5379,
42.712622,0,5378,-84.461958,,,,HAGADORN RD & JANICE LEE DR,NBD Hagadorn past Mt Hope,0,5378,
42.668273,0,4701,-84.576179,,,,BALFOUR DR & YUNKER ST,NBD Balfour before Miller,0,4701,
42.688622,0,1772,-84.59638,,,,STILLWELL AVE & REO RD,NBD Stillwell past Jerree St,0,1772,
42.693417,0,1779,-84.611223,,,,SHEFFIELD BLVD & SEAWAY DR,WBD Sheffield past Blue River Dr,0,1779,
42.693426,0,1778,-84.608399,,,,SHEFFIELD BLVD & BLUE RIVER DR,WBD Sheffield before Blue River,0,1778,
42.755378,0,3729,-84.517429,,,,N HAYFORD AVE & NORTHAMPTON WAY,SBD Hayford after Tulane Dr,0,3729,
42.696411,0,4854,-84.520922,,,,PROVINCIAL HOUSE DR & CALLIHAN CT,EBD Provincial House past Aurelius,0,4854,
42.703537,0,5932,-84.498346,,,,COLLINS RD,SBD Collins past Forest,0,5932,
42.740209,0,4821,-84.48059,,,,634 MAC AVE & BURCHAM DR,NBD MAC before Burcham,0,4821,
42.73353,0,1678,-84.53116,,,,E MICHIGAN AVE & S HOLMES ST,EBD Michigan past Holmes St,0,1678,
42.73352,0,1679,-84.52792,,,,E MICHIGAN AVE & ALLEN ST,EBD Michigan past Lathrop St,0,1679,
42.727168,0,2292,-84.576973,,,,EVERETT DR & W SAINT JOSEPH ST,NBD Everett past W St Joseph St,0,2292,
42.733539,0,1674,-84.544295,,,,E MICHIGAN AVE & N LARCH ST,EBD Michigan past Larch St,0,1674,
42.68634,0,1976,-84.54794,,,,S CEDAR ST & E SYRINGA DR,NBD Cedar past Cedar Ct,0,1976,
42.73352,0,1676,-84.5374,,,,E MICHIGAN AVE & past Pennsylvania,EBD Michigan past Pennsylvania,0,1676,
42.7335,0,1677,-84.53411,,,,E MICHIGAN AVE & past Jones,EBD Michigan past Jones St,0,1677,
42.772124,0,5986,-84.485896,,,,COLEMAN RD & CHESLEY ST,EBD Coleman at the Club,0,5986,
42.759896,0,3569,-84.554365,,,,TURNER ST & W RANDOLPH ST,SBD Turner past Randolph St,0,3569,
42.733567,0,1673,-84.546187,,,,E MICHIGAN AVE & N CEDAR ST,EBD Michigan past Cedar St,0,1673,
42.690668,0,3489,-84.56764,,,,S MARTIN LUTHER KING JR BLVD & PIERCE RD,SBD MLK past Mary Ave,0,3489,
42.694426,0,4138,-84.407347,,,,CARRIAGE LANE APTS & ALGOMA DR,NBD Carriage Lane,0,4138,
42.760835,0,4874,-84.501853,,,,W LAKE LANSING RD & MEIJER LAKE LANSING LOT,WBD Lake Lansing past Meijer Ent.,0,4874,
42.765817,0,3768,-84.602685,,,,N WAVERLY RD & STANDARD DR,NBD Waverly past Wilson Ave,0,3768,
42.757527,0,3755,-84.562784,,,,N GRAND RIVER AVE & GRAND RIVER ACCESS,WBD Grand Riv past Gr. Riv. Access,0,3755,
42.64418,0,3284,-84.52354,,,,AURELIUS RD & DECAMP AVE,SBD Aurelius Rd before Decamp Ave,0,3284,
42.699946,0,3485,-84.567416,,,,S MARTIN LUTHER KING JR BLVD & W HOLMES RD,SBD MLK at Southland Ave,0,3485,
42.733078,0,2669,-84.410829,,,,MARSH RD & 5TH AVE,SBD Marsh Rd at Tihart Dr,0,2669,
42.694676,0,3487,-84.56759,,,,S MARTIN LUTHER KING JR BLVD & WARWICK DR,SBD MLK past Warwick Dr,0,3487,
42.697074,0,3486,-84.567441,,,,S MARTIN LUTHER KING JR BLVD & WARWICK DR,SBD MLK past Holmes Rd,0,3486,
42.66838,0,4563,-84.572645,,,,HAAG RD & SELFRIDGE BLVD,NBD Haag before Miller,0,4563,
42.669319,0,4562,-84.570398,,,,W MILLER RD & YUNKER ST,WBD Miller past  Winterset Dr,0,4562,
42.669327,0,4561,-84.566741,,,,W MILLER RD & DAFT ST,WBD Miller before Daft St,0,4561,
42.669362,0,4560,-84.563685,,,,W MILLER RD & S WASHINGTON RD,WBD Miller past Washington,0,4560,
42.745194,0,2474,-84.503508,,,,COOLIDGE RD & CHARTWELL DUAL CARRIAGE WAY,SBD Coolidge past Dual Chartwell Ca,0,2474,
42.669161,0,4566,-84.59152,,,,W MILLER RD & PLEASANT GROVE RD,EBD Miller past Wise Rd,0,4566,
42.669295,0,4565,-84.586255,,,,W MILLER RD & PHEASANT RD,WBD Miller before Picardy St,0,4565,
42.669303,0,4564,-84.582229,,,,W MILLER RD & GROVENBURG RD,WBD Miller before Grovenberg Rd,0,4564,
42.742996,0,3647,-84.567668,,,,W OAKLAND AVE & N MARTIN LUTHER KING JR BLVD,WBD Oakland past MLK Blvd,0,3647,
42.742977,0,3646,-84.56327,,,,W OAKLAND AVE & EDGEWOOD CT,WBD Oakland past Wisconsin Ave,0,3646,
42.743602,0,3645,-84.560235,,,,W OAKLAND AVE & N WALNUT ST,WBD Oakland past Pine St,0,3645,
42.737777,0,5512,-84.49315,,,,W GRAND RIVER AVE & ARDSON RD,EBD Grand River past Harrison,0,5512,
42.743564,0,3643,-84.552482,,,,W OAKLAND AVE & N CAPITOL AVE,WBD Oakland past Washington Av,0,3643,
42.735059,0,3642,-84.572659,,,,N JENISON AVE & W IONIA ST,NBD Jenison past Ottawa St,0,3642,
42.733744,0,3641,-84.574096,,,,W MICHIGAN AVE & MCPHERSON AVE,EBD Michigan past McPherson Ave,0,3641,
42.743023,0,3648,-84.570027,,,,W OAKLAND AVE & CLAYTON ST,WBD Oakland past Holten St,0,3648,
42.760161,0,2550,-84.494281,,,,808 W LAKE LANSING RD & BURNT TREE LN,WBD Lake Lansing past N Harrison,0,2550,
42.760735,0,2551,-84.496399,,,,830 W LAKE LANSING RD & BARCLAY LN,WBD Lake Lansing at Barclay Ln,0,2551,
42.7609,0,2552,-84.499146,,,,W LAKE LANSING RD & MARFITT RD,WBD Lake Lansing past Marfitt Rd,0,2552,
42.732622,0,3038,-84.558545,,,,W ALLEGAN ST & S PINE ST,EBD  Allegan past S Pine St,0,3038,
42.732612,0,3039,-84.555781,,,,W ALLEGAN ST & TOWNSEND ST,EBD Allegan before Townsend St,0,3039,
42.64675,0,3283,-84.52354,,,,AURELIUS RD & CEDAR ST,SBD Aurelius before Spahr Ave,0,3283,
42.737331,0,4643,-84.568346,,,,W SHIAWASSEE ST & BARTLETT ST,EBD Shiawassee past Bartlett St,0,4643,
42.740236,0,2493,-84.480738,,,,634 MAC AVE & BURCHAM DR,SBD MAC past Burcham,0,2493,
42.733925,0,3662,-84.597965,,,,W MICHIGAN AVE & STONER RD,WBD Michigan at Stoner Rd,0,3662,
42.74185,0,2495,-84.483659,,,,ABBOT RD & CENTERLAWN ST,NBD Abbot before Centerlawn St,0,2495,
42.687483,0,2995,-84.508705,,,,TRAPPERS COVE TRL & BEAU JARDIN DR,WBD Trappers Cove before Dunckel,0,2995,
42.737303,0,4644,-84.562548,,,,W SHIAWASSEE ST & N SYCAMORE ST,EBD Shiawassee before Sycamore St,0,4644,
42.731271,0,4645,-84.472154,,,,BOGUE ST & COLLINGWOOD DR,SBD Bogue past Grand River,0,4645,
42.734743,0,3034,-84.558139,,,,W OTTAWA ST & N CHESTNUT ST,WBD Ottawa St before Chestnut St,0,3034,
42.747876,0,2395,-84.549506,,,,TURNER ST & CLINTON ST,NBD Turner past Grand River Ave,0,2395,
42.747067,0,6053,-84.440832,,,,,WBD Haslett before Park Lake,0,6053,
42.743162,0,2390,-84.553822,,,,N CAPITOL AVE & W OAKLAND AVE,SBD Capitol past W Oakland Ave,0,2390,
42.688716,0,5597,-84.285349,,,,W GRAND RIVER AVE & E GRAND RIVER AVE,EBD Grand River After Jackson,0,5597,
42.732651,0,3036,-84.564245,,,,W ALLEGAN ST & S BUTLER BLVD,EBD Allegan past Butler,0,3036,
42.717505,0,5514,-84.408868,,,,W GRAND RIVER AVE & CENTRAL PARK DR,EBD Grand RIver past Dobie,0,5514,
42.764088,0,2213,-84.542699,,,,N EAST ST & E HOWE AVE,NBD N East past Howe,0,2213,
42.743458,0,2475,-84.503511,,,,COOLIDGE RD & MELODY LN,SBD Coolidge past Melody Ln,0,2475,
42.758879,0,3240,-84.567367,,,,N MARTIN LUTHER KING JR BLVD & MLK/LOGAN ACCESS CUTOFF,Peckham Riverside,0,3240,
42.747306,0,2473,-84.503542,,,,COOLIDGE RD & LAKE SIDE DR,SBD Coolidge past Stonewood Dr,0,2473,
42.74999,0,2472,-84.503563,,,,COOLIDGE RD & PEBBLE CREEK BLVD,SBD Coolidge past Pebble Creek Blvd,0,2472,
42.691366,0,3373,-84.523444,,,,,SBD Aurelius past Lourdes Ct,0,3373,
42.753883,0,2470,-84.503558,,,,COOLIDGE RD & WOODBROOK DR,SBD Coolidge past N Shore Dr,0,2470,
42.730863,0,3639,-84.575387,,,,MCPHERSON AVE & W KALAMAZOO ST,NBD McPherson past Kalamazoo St,0,3639,
42.747791,0,4891,-84.538768,,,,1221 N HIGH ST & DRURY LN,SBD High St before Grand River,0,4891,
42.732322,0,4634,-84.574908,,,,MCPHERSON AVE & W KALAMAZOO ST,NBD McPherson past Washtenaw,0,4634,
42.75972,0,5729,-84.566629,,,,N GRAND RIVER AVE & W LAPEER ST,WBD Gr River before MLK,0,5729,
42.729923,0,4647,-84.508344,,,,E KALAMAZOO ST & S CLIPPERT ST,EBD Kalamazoo past Homer,0,4647,
42.667042,0,6052,-84.175804,,,,,WBD Grand River past Summit,0,6052,
42.692752,0,5600,-84.567603,,,,S MARTIN LUTHER KING JR BLVD & HILLCREST ST,SBD MLK past Hillcrest St,0,5600,
42.751335,0,4890,-84.538802,,,,1559 N HIGH ST & NEW YORK AVE,SBD High St past North,0,4890,
42.712526,0,5602,-84.493617,,,,S HARRISON RD & CRESCENT RD,NBD Harrison Road past Mt Hope,0,5602,
42.763122,0,5764,-84.485357,,,,ABBOT PLACE APT & ABBOT RD,Abbot Place - Circle Drive,0,5764,
42.734724,0,3033,-84.554257,,,,W OTTAWA ST & SEYMOUR AVE,WBD Ottawa past N Capitol Ave,0,3033,
42.718234,0,5609,-84.411593,,,,W GRAND RIVER AVE & COUNTRY WAY DR E,EBD Gr River  before Dobie Road,0,5609,
42.760319,0,5763,-84.483789,,,,ABBOT RD & SWART ST,SBD Abbot past Arbor Glen,0,5763,
42.772916,0,4204,-84.490725,,,,COLEMAN RD & E LENAWEE ST,EBD Coleman @ Block 36,0,4204,
42.730659,0,5761,-84.476799,,,,E CIRCLE DR & AUDITORIUM RD,NBD Farm before Dormitory,0,5761,
42.74472,0,1858,-84.59621,,,,MORRIS AVE & SYLVAN RD,NBD Morris before Sylvan Ave,0,1858,
42.66232,0,5692,-84.56292,,,,EDGEWOOD BLVD & W EDGEWOOD/E EDGEWOOD TURN,EBD Edgewood past Washington,0,5692,
42.762821,0,4802,-84.51484,,,,SAMS WAY & TOWNE CENTRE BLVD,WBD ETC Drive before Mitchells,0,4802,
42.737584,0,4638,-84.544538,,,,N LARCH ST & E SHIAWASSEE ST,NBD Larch past Shiawassee,0,4638,
42.740009,0,4804,-84.511132,,,,N HOWARD ST & FERNWOOD AVE,SBD Howard past Saginaw,0,4804,
42.729294,0,4805,-84.492585,,,,E KALAMAZOO ST & SCIENCE RD,WBD Kalamazoo before Harrison,0,4805,
42.716376,0,4806,-84.497013,,,,CRESCENT RD & S HARRISON RD,WBD N Crescent before Middlevale,0,4806,
42.721944,0,4807,-84.488592,,,,WILSON RD & CHESTNUT RD,EBD Wilson before Chestnut,0,4807,
42.7251,0,4808,-84.487683,,,,Chestnut Rd & Unknown,NBD Chestnut before Shaw,0,4808,
42.639742,0,3290,-84.543115,,,,N EIFERT RD & W HOLT RD,SBD Eifert past W Holt Rd,0,3290,
42.741028,0,1852,-84.617781,,,,E SAGINAW HWY & RICHARD AVE,EBD Saginaw past Theo Ave,0,1852,
42.741011,0,1853,-84.615324,,,,E SAGINAW HWY & JULIAN AVE,EBD Saginaw St past Julian Ave,0,1853,
42.741029,0,1854,-84.612327,,,,E SAGINAW HWY & past Harriet,EBD Saginaw past Harriet Ave,0,1854,
42.663136,0,5690,-84.565615,,,,E EDGEWOOD/W EDGEWOOD TURN & EDGEWOOD BLVD,WBD Edgewood past Washington,0,5690,
42.74213,0,1857,-84.59622,,,,MORRIS AVE & UPTON RD,NBD Morris before Upton Rd,0,1857,
42.661423,0,6064,-84.552571,,,,EDGEWOOD BLVD,EBD Edgewood Blvd before Edgewood Circle,0,6064,
42.726488,0,6065,-84.582132,,,,CLARE ST & W ST JOE ST,NBD Clare before St. Joseph,0,6065,
42.736627,0,6066,-84.546676,,,,N CEDAR ST & E SHIAWASSEE ST,SBD Cedar past Shiawassee,0,6066,
42.719112,0,6060,-84.464795,,,,,WBD Service Road at Lot 91,0,6060,
42.747375,0,6062,-84.549249,,,,,EBD Cesar Chavez past Turner,0,6062,
42.72418,0,6063,-84.487483,,,,CHESTNUT RD,NBD Chestnut past Wilson,0,6063,
42.714693,0,5894,-84.567876,,,,S MARTIN LUTHER KING JR BLVD & W BARNES AVE,SBD MLK past Barnes,0,5894,
42.756202,0,5696,-84.537286,,,,LAKE LANSING RD & NEW YORK AVE,EBD Lake Lansing past New York,0,5696,
42.733558,0,6068,-84.54787,,,,E MICHIGAN AVE & MUSEUM EXIT RAMP,EBD Michigan before Cedar,0,6068,
42.734246,0,6069,-84.544565,,,,,NBD Larch past Michigan,0,6069,
42.757553,0,5697,-84.535135,,,,LAKE LANSING RD & MASSACHUSETTS AVE,EBD Lake Lansing past Commonwealth,0,5697,
42.735044,0,1725,-84.488191,,,,MICHIGAN AVE & LOUIS ST,WBD Michigan past Delta St,0,1725,
42.746904,0,2605,-84.454384,,,,1800 HASLETT RD & DEER PATH LN,EBD Haslett past Deerpath Ln,0,2605,
42.707483,0,3622,-84.582295,,,,PLEASANT GROVE RD & COLONIAL PLZ,SBD Pleasant Grove past Colonial,0,3622,
42.738876,0,2600,-84.46214,,,,N HAGADORN RD & MOUNT VERNON AVE,NBD Hagadorn past Snyder Rd,0,2600,
42.741186,0,2601,-84.46218,,,,N HAGADORN RD & BURCHAM DR,NBD Hagadorn past Burcham Dr,0,2601,
42.73727,0,4479,-84.54542,,,,E SHIAWASSEE ST & N LARCH ST,WBD Shiawassee past Larch St,0,4479,
42.746223,0,2603,-84.462372,,,,N HAGADORN RD & CEDARHILL DR,SBD Hagadorn past Haslett,0,2603,
42.752197,0,3950,-84.408492,,,,MARSH RD & LAKE DR,NBD Marsh before Lake Lansing Rd,0,3950,
42.634112,0,3318,-84.523296,,,,AURELIUS RD & WILCOX RD,NBD Aurelius before Weswilmar Dr,0,3318,
42.69965,0,3265,-84.54811,,,,S CEDAR ST & BROOKLAND BLVD,SBD Cedar St before Crest St,0,3265,
42.637629,0,1936,-84.543091,,,,N EIFERT RD & DEER RUN LN,SBD Eifert past Deer Run Ln,0,1936,
42.71186,0,4110,-84.460031,,,,E MOUNT HOPE RD & JANICE LEE DR,WBD Mt Hope before Hagadorn Rd,0,4110,
42.689302,0,1773,-84.599056,,,,SUMPTER ST & ANSON ST,WBD Sumpter before Anson,0,1773,
42.740853,0,3687,-84.532213,,,,E SAGINAW ST & WORTHINGTON DR,EBD Saginaw before Clark St,0,3687,
42.623985,0,1938,-84.543249,,,,WINDMILL BLVD & N EIFERT RD,EBD Windmill past Rotterdam,0,1938,
42.75187,0,3821,-84.503561,,,,COOLIDGE RD & FARWOOD DR,SBD Coolidge past Woodbrook Dr,0,3821,
42.718782,0,3467,-84.567236,,,,S MARTIN LUTHER KING JR BLVD & MOORES RIVER DR,NBD MLK before Moores River Dr,0,3467,
42.71235,0,3465,-84.5674,,,,S Martin Luther King Jr Blvd & Mt Hope,NBD MLK past Mt Hope Ave,0,3465,
42.76065,0,5699,-84.524805,,,,LAKE LANSING RD & WOOD ST,EBD Lk Lansing before Wood,0,5699,
42.70639,0,3462,-84.5674,,,,S Martin Luther King Jr Blvd & Rundle,NBD MLK past Rundle Ave,0,3462,
42.70288,0,3461,-84.56729,,,,S Martin Luther King Jr Blvd & Dunlap St,NBD MLK past Dunlap St,0,3461,
42.700626,0,3460,-84.56728,,,,S MARTIN LUTHER KING JR BLVD & LOA ST,NBD MLK past Southland Ave,0,3460,
42.682627,0,3501,-84.603144,,,,S WAVERLY RD & HARTFORD RD,SBD Waverly past Jolly Rd,0,3501,
42.680291,0,3502,-84.603131,,,,S WAVERLY RD & PHOENIX DR,SBD Waverly past Hartford Rd,0,3502,
42.76006,0,5737,-84.531327,,,,LAKE LANSING RD,WBD Lake Lansing past Chamberlain,0,5737,
42.72767,0,3469,-84.56724,,,,S Martin Luther King Jr Blvd & Hillsdale,NBD MLK before W Hillsdale St,0,3469,
42.723998,0,3468,-84.567197,,,,S MARTIN LUTHER KING JR BLVD & WILLIAM ST,NBD MLK past Olds Ave,0,3468,
42.707485,0,2675,-84.410283,,,,DOBIE RD & BIRCHWOOD DR,NBD Dobie past Birchwood Dr,0,2675,
42.704381,0,2676,-84.410414,,,,DOBIE RD & HATCH RD,SBD Dobie past Hatch Rd,0,2676,
42.681801,0,160,-84.541191,,,,MENTAL HEALTH LOT & S CEDAR ST,Community Mental Health,0,160,
42.690941,0,2678,-84.41045,,,,DOBIE RD & SASHABAW DR,SBD Dobie past Sashabaw Rd,0,2678,
42.764596,0,4872,-84.519434,,,,EASTWOOD TOWNE CENTER & LAKE LANSING RD,EBD @ Sams Club,0,4872,
42.756104,0,5706,-84.537643,,,,LAKE LANSING RD & NEW YORK AVE,WBD Lake Lansing past New York,0,5706,
42.704623,0,2003,-84.517659,,,,,EBD Forest past Aurora Dr,0,2003,
42.73355,0,1683,-84.51726,,,,E MICHIGAN AVE & N FOSTER AVE,EBD Michigan past Foster Ave,0,1683,
42.682879,0,4137,-84.430542,,,,2205 JOLLY RD & SERVICE DR,EBD Jolly past Okemos,0,4137,
42.73452,0,169,-84.493449,,,,N HARRISON RD & S HARRISON RD,NBD Harrison past Michigan,0,169,
42.580631,0,5471,-84.443055,,,,S JEFFERSON ST & E MAPLE ST,NBD Jefferson past Maple,0,5471,
42.67773,0,4389,-84.53808,,,,S PENNSYLVANIA AVE & LOUISA ST,NBD Pennsylvania before Dennis St,0,4389,
42.669179,0,6051,-84.528327,,,,,EBD Miller before Scotmar,0,6051,
42.740814,0,3685,-84.545002,,,,E SAGINAW ST & N CEDAR ST,EBD Saginaw before Larch Street,0,3685,
42.73358,0,1682,-84.52023,,,,E MICHIGAN AVE & S FAIRVIEW AVE,EBD Michigan before S Magnolia Av,0,1682,
42.764406,0,5946,-84.503335,,,,COOLIDGE RD & MEIJER LAKE LANSING LOT,SBD Coolidge past Abbey,0,5946,
42.764997,0,5947,-84.503175,,,,COOLIDGE RD & ABBEY RD,NBD Coolidge past Abbey,0,5947,
42.773244,0,5944,-84.498616,,,,COLEMAN RD & BEAUMONT PARK DR,WBD Coleman at Beaumont Park,0,5944,
42.771163,0,5945,-84.503215,,,,COOLIDGE RD & TURF LN,SBD Coolidge past Earl,0,5945,
42.773074,0,5942,-84.487001,,,,COLEMAN RD & COLLINS RD,WBD Coleman past Hunsaker,0,5942,
42.717209,0,4753,-84.498719,,,,MIDDLEVALE RD & S HARRISON RD,Middlevale before N Crescent,0,4753,
42.703849,0,5940,-84.497756,,,,FOREST RD & COLLINS RD,NBD Collins past Forest,0,5940,
42.771094,0,5941,-84.484275,,,,COLEMAN RD & COLLINS RD,WBD Coleman past Chandler,0,5941,
42.669253,0,4743,-84.591568,,,,W MILLER RD & WISE RD,WBD Miller before Wise,0,4743,
42.669285,0,4742,-84.578891,,,,W MILLER RD & LONGMEADOW RD,WBD Miller past Woodgate,0,4742,
42.729237,0,4068,-84.478717,,,,AUDITORIUM RD & AUDITORIUM BLVD,EBD Auditorium before Farm Ln,0,4068,
42.725044,0,4069,-84.493599,,,,S HARRISON RD & LILAC AVE,NBD Harrison before Shaw Ln,0,4069,
42.73368,0,1735,-84.51484,,,,E MICHIGAN AVE & KIPLING BOUL;EVARD,WBD Michigan before Kipling Blvd,0,1735,
42.669245,0,4746,-84.558641,,,,W MILLER RD & HILLIARD RD,EBD Miller past Hilliard,0,4746,
42.770133,0,5948,-84.503094,,,,COOLIDGE RD & EARL AVE,NBD Coolidge past Turf,0,5948,
42.669221,0,4744,-84.569404,,,,W MILLER RD & DAFT ST,EBD Miller past Winterset,0,4744,
42.665071,0,4388,-84.542811,,,,EDGEWOOD BLVD & AMWOOD DR,EBD Edgewood before Amwood,0,4388,
42.721047,0,5786,-84.525255,,,,PERKINS ST & SHEPARD ST,EBD Perkins before Leslie,0,5786,
42.721155,0,5787,-84.525243,,,,PERKINS ST & SHEPARD ST,WBD Perkins past Leslie,0,5787,
42.740722,0,5782,-84.47328,,,,BURCHAM DR,WBD Burcham past Butterfield,0,5782,
42.681025,0,5543,-84.547673,,,,UNNAMED ST & S CEDAR ST,EBD FIA Entrance off Cedar,0,5543,
42.69205,0,3268,-84.54812,,,,S CEDAR ST & MAPLEHILL AVE,SBD Cedar past E Mason St,0,3268,
42.773127,0,5949,-84.498014,,,,COLEMAN RD & WHARTON ST,EBD Coleman at Beaumont,0,5949,
42.712056,0,3619,-84.586875,,,,W MOUNT HOPE AVE & EDWIN PL,EBD Mt Hope past Edwin Pl,0,3619,
42.737104,0,9,-84.506271,,,,FRANDOR ACCESS RD & FRANDOR CENTER,EBD Frandor Center,0,9,
42.703761,0,3607,-84.591984,,,,S DEERFIELD AVE & FAUNA AVE,SBD Deerfield past Brisbane Dr,0,3607,
42.705318,0,3606,-84.591395,,,,VICTOR AVE & BEDFORD ST,WBD Victor before Deerfield Ave,0,3606,
42.705309,0,3605,-84.58625,,,,VICTOR AVE & HAMPDEN DR,WBD Victor  before Viking St,0,3605,
42.7053,0,3604,-84.583106,,,,VICTOR AVE & HAMPDEN DR,WBD Victor past Pleasant Grove Rd,0,3604,
42.697999,0,3609,-84.591972,,,,,SBD Deerfield before Holmes Rd,0,3609,
42.701623,0,3608,-84.592009,,,,S DEERFIELD AVE & HERRICK DR,SBD Deerfield past Dunlap St,0,3608,
42.751702,0,4511,-84.538433,,,,E NORTH ST & N HIGH ST,EBD North past High St,0,4511,
42.69485,0,2182,-84.53797,,,,S PENNSYLVANIA AVE & IRVINGTON AVE,NBD Pennsylvania at Irvington Ave,0,2182,
42.69264,0,2181,-84.53796,,,,S PENNSYLVANIA AVE & MAPLEHILL AVE,NBD Pennsylvania past Maplehill,0,2181,
42.74546,0,1846,-84.62936,,,,W MALL DR & LANSING MALL LOT,WBD Mall Dr Past Vil. Green Access,0,1846,
42.752515,0,4608,-84.424797,,,,LAC DU MONT DR,SBD LacDuMont near #2074,0,4608,
42.750618,0,4609,-84.424777,,,,LAC DU MONT DR & LAKE LANSING RD,SBD LacDuMont past Lake Lansing,0,4609,
42.74747,0,4606,-84.41971,,,,BOIS ILE DR & HASLETT RD,NBD Boise Isle past Haslett Rd,0,4606,
42.727499,0,4607,-84.414614,,,,CENTRAL PARK DR & NEWMAN RD,WBD Central Park past Marsh Rd,0,4607,
42.746898,0,4604,-84.45753,,,,HASLETT RD & FERNDALE AVE,EBD Haslett past Ferndale Ave,0,4604,
42.746913,0,4605,-84.44657,,,,HASLETT RD & E END DR,EBD Haslett past Park Lake Rd,0,4605,
42.732092,0,1599,-84.550598,,,,S GRAND AVE & E WASHTENAW ST,NBD Grand Ave before E Allegan St,0,1599,
42.76081,0,2365,-84.504176,,,,W LAKE LANSING RD & WEST RD,WBD Lake Lansing past Coolidge Rd,0,2365,
42.697686,0,4711,-84.595606,,,,W HOLMES RD & LAWDOR RD,WBD Holmes past Lawdor,0,4711,
42.666473,0,118,-84.174003,,,,MAIN ST S & CHESTNUT ST E,NBD Main before Grand River,0,118,
42.682919,0,5581,-84.508133,,,,,EBD Jolly Past Belle Chase,0,5581,
42.682252,0,3378,-84.513413,,,,,NBD Dunckel before Jolly,0,3378,
42.686418,0,3375,-84.523462,,,,,SBD Aurelius past Irene St,0,3375,
42.697712,0,4713,-84.602568,,,,W HOLMES RD & AVERILL DR,WBD Holmes before Waverly,0,4713,
42.743069,0,3947,-84.408099,,,,MARSH RD & FRANKLIN ST,NBD Marsh past Franklin St,0,3947,
42.692914,0,3372,-84.52343,,,,,SBD Aurelius past Luwanna Dr,0,3372,
42.694552,0,3371,-84.523428,,,,,SBD Aurelius past Irvington Ave,0,3371,
42.696483,0,3370,-84.521315,,,,,WBD Provincial House past Callihan,0,3370,
42.72831,0,5443,-84.54547,,,,S CEDAR ST & E KALAMAZOO ST,SBD Cedar past Kalamazoo,0,5443,
42.719905,0,1748,-84.552424,,,,S WASHINGTON AVE & E SOUTH ST,SBD Washington past South St,0,1748,
42.746475,0,3894,-84.493665,,,,N HARRISON RD & W SAGINAW ST,SBD Harrison past Longfellow Dr,0,3894,
42.740851,0,5740,-84.548332,,,,E SAGINAW ST & N CEDAR ST,EBD Saginaw before Cedar,0,5740,
42.754,0,2230,-84.53878,,,,N HIGH ST & LAKE LANSING RD,SBD High past Lake Lansing,0,2230,
42.73367,0,1744,-84.54506,,,,E MICHIGAN AVE & LARCH STREET,WBD Michigan past Larch St,0,1744,
42.726677,0,5929,-84.605924,,,,E ST JOE HWY & S DIBBLE ST,WBD St Joseph past Waverly,0,5929,
42.723099,0,1746,-84.552434,,,,S WASHINGTON AVE & W ELM ST,SBD Washington past Hazel St,0,1746,
42.743087,0,2351,-84.5113,,,,CHESTER RD & E GRAND RIVER AVE,NBD Chester past E Grand River Ave,0,2351,
42.733658,0,1740,-84.529554,,,,E MICHIGAN AVE & Custer,WBD Michigan past Custer Ave,0,1740,
42.730051,0,5636,-84.513392,,,,E KALAMAZOO ST & CHARLES ST,WBD Kalamazoo before Charles,0,5636,
42.733652,0,1742,-84.53733,,,,E MICHIGAN AVE & BINGHAM ST,WBD Michigan before Pennsylvani,0,1742,
42.73363,0,1743,-84.54162,,,,E MICHIGAN AVE & N HOSMER ST,WBD Michigan past Hosmer St,0,1743,
42.72268,0,4365,-84.5382,,,,S PENNSYLVANIA AVE & E HAZEL ST,SBD Pennsylvania past Hazel St,0,4365,
42.72768,0,4364,-84.53808,,,,S PENNSYLVANIA AVE & BEMENT ST,SBD Pennsylvania before Heald Pl,0,4364,
42.71626,0,4367,-84.53819,,,,S PENNSYLVANIA AVE & MOTOR AVE,SBD Pennsylvania past Baker St,0,4367,
42.71772,0,4366,-84.53817,,,,S PENNSYLVANIA AVE & LINDBERGH DR,SBD Pennsylvania after Fayette St,0,4366,
42.73318,0,4361,-84.53799,,,,S PENNSYLVANIA AVE & EUREKA ST,SBD Pennsylvania past Michigan,0,4361,
42.7371,0,4360,-84.53842,,,,E SHIAWASSEE ST & N PENNSYLVANIA AVE,EBD Shiawassee before Pennsylvania,0,4360,
42.72958,0,4363,-84.53806,,,,S PENNSYLVANIA AVE & HICKORY ST,SBD Pennsylvania past Kalamazoo,0,4363,
42.73132,0,4362,-84.53802,,,,S PENNSYLVANIA AVE & EUREKA ST,SBD Pennsylvania before Prospect St,0,4362,
42.7483,0,1865,-84.57911,,,,W WILLOW ST & Sunset,EBD Willow past Sunset Ave,0,1865,
42.745276,0,2235,-84.537861,,,,N PENNSYLVANIA AVE & PORTER ST,SBD Pennsylvania past Porter St,0,2235,
42.70991,0,4369,-84.5382,,,,S PENNSYLVANIA AVE & RILEY ST,SBD Pennsylvania past Kenwood Ave,0,4369,
42.71501,0,4368,-84.53819,,,,S Pennsylvania Ave & Motor,SBD Pennsylvania past Motor Ave,0,4368,
42.711333,0,1809,-84.552945,,,,S WASHINGTON AVE & Mt Hope,NBD Washington before Mt Hope A,0,1809,
42.65201,0,4453,-84.52962,,,,CEDAR ST & FAY ST,NBD Cedar past Delhi Commerce Dr,0,4453,
42.643307,0,4452,-84.51844,,,,CEDAR ST & DECAMP AVE,NBD Cedar before Decamp Ave,0,4452,
42.67906,0,4457,-84.54796,,,,S CEDAR ST & ARMSTRONG RD,NBD Cedar before Armstrong Rd,0,4457,
42.72121,0,1899,-84.54555,,,,S CEDAR ST & E ELM ST,SBD Cedar past E Elm St,0,1899,
42.74336,0,3739,-84.518364,,,,E GRAND RIVER AVE & N FOSTER AVE,WBD Grand River past Foster Av,0,3739,
42.6576,0,4454,-84.53548,,,,S CEDAR ST & JUST A MERE AVE,NBD Cedar before Just A Mere,0,4454,
42.713298,0,5641,-84.552509,,,,S WASHINGTON AVE & E BARNES AVE,SBD Washington at Bank St,0,5641,
42.68364,0,5640,-84.25537,,,,E Grand River Rd & Skyway Dr,WBD Grand River past Sky Way,0,5640,
42.690725,0,4459,-84.547905,,,,S CEDAR ST & FENTON ST,NBD Cedar past Jessop Ave,0,4459,
42.673303,0,5642,-84.591777,,,,,Hill Vocational Center,0,5642,
42.724879,0,5645,-84.477988,,,,FARM LN,SBD Farm past S Shaw,0,5645,
42.751697,0,80,-84.549983,,,,E NORTH ST & TURNER ST,WBD North past Turner,0,80,
42.683091,0,5647,-84.54599,,,,E JOLLY RD & W JOLLY RD,WBD Jolly before Cedar,0,5647,
42.65675,0,5646,-84.53485,,,,S CEDAR ST & BROOKDALE ST,SBD Cedar past Just-a-Mere,0,5646,
42.694195,0,5937,-84.498752,,,,COLLINS RD & TECHNOLOGY BLVD,NBD Collins past Technology (south drive),0,5937,
42.729955,0,4692,-84.462047,,,,N HAGADORN RD & E GRAND RIVER AVE,NBD Hagadorn past Grand River,0,4692,
42.732632,0,3037,-84.561665,,,,W ALLEGAN ST & S BUTLER BLVD,EBD Allegan St before S Sycamore St,0,3037,
42.71657,0,2581,-84.493599,,,,S HARRISON RD & CRESCENT RD,NBD Harrison past Crescent Rd,0,2581,
42.730977,0,4697,-84.49386,,,,S HARRISON RD & BRODY RD N,NBD Harrison past Kalamazoo,0,4697,
42.740847,0,4696,-84.537139,,,,E SAGINAW ST & N CEDAR ST,EBD Saginaw past Pennsylvania,0,4696,
42.738243,0,4699,-84.494402,,,,W GRAND RIVER AVE & N HARRISON RD,WBD Grand River past Harrison,0,4699,
42.74065,0,5762,-84.483256,,,,BURCHAM DR & ABBOT RD,EBD Burcham past Abbot,0,5762,
42.756337,0,4510,-84.538515,,,,N HIGH ST & 8TH AVE,SBD High past Gier St,0,4510,
42.716276,0,2580,-84.495564,,,,CRESCENT RD & S HARRISON RD,EBD N Crescent before Harrison,0,2580,
42.64129,0,3325,-84.51625,,,,CEDAR ST & VETERANS DR,NBD Cedar past Veterans Dr,0,3325,
42.740614,0,5693,-84.47328,,,,BURCHAM DR,EBD Burcham before Butterfield,0,5693,
42.65352,0,5669,-84.53121,,,,CEDAR ST & FAY ST,NBD Cedar before Willoughby,0,5669,
42.726122,0,87,-84.47715,,,,,WBD Shaw before Farm Lane,0,87,
42.686787,0,1769,-84.58937,,,,REO RD & INGHAM ST,WBD Reo past Ingham St,0,1769,
42.729603,0,5760,-84.477746,,,,FARM LN & AUDITORIUM RD,NBD Farm past Auditorium,0,5760,
42.755598,0,2509,-84.462208,,,,6020 N HAGADORN RD & E LAKE LANSING RD,NBD Hagadorn past Lake Lansing,0,2509,
42.758735,0,2504,-84.478314,,,,3383 E LAKE LANSING RD & GOSSARD AVE,WBD Lake Lansing before Gossard Ave,0,2504,
42.759155,0,2503,-84.48298,,,,E LAKE LANSING RD & ABBOT RD,EBD Lake Lansing past Abbot Rd,0,2503,
42.72412,0,4815,-84.491217,,,,BIRCH RD & CHESTNUT RD,SBD Birch before Wilson,0,4815,
42.737429,0,3029,-84.56498,,,,W SHIAWASSEE ST & N MARTIN LUTHER KING JR BLVD,WBD Shiawassee past N Butler Blvd,0,3029,
42.667161,0,2727,-84.187707,,,,GRAND RIVER AVE W,EBD Grand River Ave at Webberville,0,2727,
42.741473,0,4800,-84.506425,,,,E GRAND RIVER AVE & N CLIPPERT ST,WBD Grand River before Clippert,0,4800,
42.742062,0,4091,-84.462306,,,,N HAGADORN RD & BURCHAM DR,SBD Hagadorn before Burcham Dr,0,4091,
42.669262,0,4581,-84.556002,,,,W MILLER RD & SOMMERSET RD,EBD Miller past Somerset Rd,0,4581,
42.74626,0,1859,-84.5962,,,,MORRIS AVE & CORNELIA DR,NBD Morris past Timber Dr,0,1859,
42.753989,0,2640,-84.410035,,,,LAKE LANSING RD & MARTINUS ST,WBD Lake Lansing past Martinus St,0,2640,
42.753982,0,2641,-84.41167,,,,LAKE LANSING RD & GREENMAN ST,WBD Lake Lansing past Cypress St,0,2641,
42.711772,0,4099,-84.44516,,,,E MOUNT HOPE RD & COMANCHE DR,EBD Mt Hope past Comanche Dr,0,4099,
42.758673,0,4848,-84.483804,,,,2205 ABBOT RD & E LAKE LANSING RD,SBD Abbot  past Lake Lansing,0,4848,
42.752807,0,2644,-84.424504,,,,LAC DU MONT DR,NBD LacDuMont near #2091,0,2644,
42.75501,0,2645,-84.423807,,,,2101 LAC DU MONT DR & 2101 Lac DuMont,NBD LacDuMont before Lake Lansing,0,2645,
42.755109,0,2646,-84.423955,,,,LAC DU MONT DR & LAKE LANSING RD,SBD LacDuMont past Lake Lansing,0,2646,
42.749332,0,2647,-84.420541,,,,1941 LAC DU MONT DR & HASLETT RD,NBD LacDuMont past Bois Isle,0,2647,
42.71124,0,5996,-84.576105,,,,BOSTON BLVD,SBD Boston Blvd past Mount Hope,0,5996,
42.759922,0,5736,-84.531298,,,,LAKE LANSING RD,EBD Lake Lansing before Chamberlain,0,5736,
42.75179,0,5731,-84.536417,,,,E NORTH ST & NEW YORK AVE,WBD North past Massachusetts,0,5731,
42.727833,0,5730,-84.416223,,,,CENTRAL PARK DR & NEW YORK AVE,EBD Central Park before Marsh,0,5730,
42.729941,0,4856,-84.524509,,,,E KALAMAZOO ST & LESLIE ST,EBD Kalamazoo past Leslie,0,4856,
42.729859,0,5739,-84.521758,,,,E KALAMAZOO ST & S CLEMENS AVE,EBD Kalamazoo past Clemens,0,5739,
42.737392,0,3028,-84.560631,,,,W SHIAWASSEE ST & N SYCAMORE ST,WBD Shiawassee past N Pine St,0,3028,
42.702772,0,1804,-84.560035,,,,S WASHINGTON AVE & DUNLAP ST,NBD Washington past Dunlap St,0,1804,
42.761108,0,3782,-84.570843,,,,N GRAND RIVER AVE & MILDRED ST,EBD Grand River before Cynwood St,0,3782,
42.760517,0,3783,-84.568927,,,,N GRAND RIVER AVE & HOLLYWOOD ST,EBD Grand River past Hollywood,0,3783,
42.762773,0,3780,-84.576729,,,,N GRAND RIVER AVE & EDGEBROOK DR,EBD Grand River past Edgebrook,0,3780,
42.761994,0,3781,-84.573928,,,,N GRAND RIVER AVE & STOCKMAN CT,EBD Grand Riv. past Tecumseh River,0,3781,
42.756694,0,3786,-84.561469,,,,N GRAND RIVER AVE & RAYMOND DR,EBD Grand River past Culver St,0,3786,
42.6837,0,5639,-84.25607,,,,E Grand River Rd & Skyway Dr,EBD Grand River before Sky Way,0,5639,
42.697494,0,1801,-84.566226,,,,W HOLMES RD & S MARTIN LUTHER KING JR BLVD,EBD Holmes past MLK,0,1801,
42.758162,0,3785,-84.564074,,,,N GRAND RIVER AVE & COOLIDGE ST,EBD Grand River past Coolidge St,0,3785,
42.708501,0,3481,-84.567891,,,,S MARTIN LUTHER KING JR BLVD & GORDON AVE,SBD MLK past Gordon Ave,0,3481,
42.773175,0,5943,-84.491228,,,,COLEMAN RD,WBD Coleman at Block 36,0,5943,
42.753561,0,3788,-84.556039,,,,N GRAND RIVER AVE & SEAGAR ST,EBD Grand River before Seager St,0,3788,
42.682979,0,5637,-84.431327,,,,JOLLY RD & SERVICE DR,WBD Jolly before Okemos,0,5637,
42.720997,0,3798,-84.530733,,,,PERKINS ST & DAKIN ST,EBD Perkins past Dakin St,0,3798,
42.669357,0,4395,-84.545116,,,,E MILLER RD & KAYNORTH RD,WBD Miller past Cedar St,0,4395,
42.669376,0,4396,-84.548602,,,,E MILLER RD & CURRY LN,WBD Miller past Curry Lane,0,4396,
42.669238,0,4580,-84.565637,,,,W MILLER RD & SOUTHBROOK AVE,EBD Miller before Southbrook,0,4580,
42.704564,0,2002,-84.522755,,,,FOREST RD & AURELIUS RD,EBD Forest past Aurelius Rd,0,2002,
42.740231,0,1850,-84.624882,,,,UNNAMED ST & BARBARA DR,Meijer W Saginaw by Gas Station,0,1850,
42.687521,0,4473,-84.512436,,,,TRAPPERS COVE TRL & DUNCKEL RD,WBD Trappers Cove before Dunckel 2,0,4473,
42.7483,0,1862,-84.59102,,,,W WILLOW ST & Westfield,EBD Willow past Westfield Rd,0,1862,
42.74828,0,3192,-84.57682,,,,W WILLOW ST & CLEO ST,EBD Willow before Cleo,0,3192,
42.741055,0,1851,-84.621246,,,,E SAGINAW HWY & ELMWOOD DR,EBD Saginaw past Elmwood Dr,0,1851,
42.682979,0,4585,-84.517524,,,,E JOLLY RD & FIVE OAKS DR,WBD Jolly past Five Oaks Dr,0,4585,
42.669249,0,4584,-84.545202,,,,E MILLER RD & KAYNORTH RD,EBD Miller before Cedar St,0,4584,
42.730049,0,4855,-84.524165,,,,E KALAMAZOO ST & REGENT ST,WBD Kalamazoo past Regent,0,4855,
42.691529,0,1765,-84.582397,,,,PLEASANT GROVE RD & MARY AVE,SBD Pleasant Grove before Mary,0,1765,
42.694169,0,5935,-84.498899,,,,COLLINS RD & TECHNOLOGY BLVD,SBD Collins past Technology Dr (south),0,5935,
42.70101,0,1803,-84.561472,,,,S WASHINGTON AVE & W HODGE AVE,NBD Washington before Loa St,0,1803,
42.683796,0,4851,-84.523391,,,,AURELIUS RD & E JOLLY RD,NBD Aurelius past Jolly,0,4851,
42.669243,0,4582,-84.553585,,,,W MILLER RD & ANNAPOLIS DR,EBD Miller at Annapolis Dr,0,4582,
